_id,parcel_id,address,zip_code,owner,property_type,create_date,latest_inspection_result,latest_inspection_score,record_number,inspection_status,latitude,longitude,neighborhood,council_district,ward
42901,0015L00194000000,"113 CHALFONT ST, Pittsburgh, 15210",15210,JAMES CHARMETTE Y,Condemned/Dead End Property,2020-08-26,Fail,2,0015L00194000000,Active,40.4167898832,-80.0053012272,Beltzhoover,3,18
42902,0015L00194000000,"113 CHALFONT ST, Pittsburgh, 15210",15210,JAMES CHARMETTE Y,Condemned/Dead End Property,2024-01-04,Pass,0,0015L00194000000,Active,40.4167898832,-80.0053012272,Beltzhoover,3,18
42903,0232B00068000000,"1825 MAPLEWOOD AVE, Pittsburgh, 15221",15221,SLOAN MALCOLM & LILLIAN,Condemned/Dead End Property,2024-02-07,,,0232B00068000000,Active,40.4520782036,-79.8780199575,East Hills,9,13
42904,0232B00068000000,"1825 MAPLEWOOD AVE, Pittsburgh, 15221",15221,SLOAN MALCOLM & LILLIAN,Condemned/Dead End Property,2024-02-07,Fail,1,0232B00068000000,Active,40.4520782036,-79.8780199575,East Hills,9,13
42905,0011A00235000000,No primary address specified,15219,BLAIR WILLIAM HOWARD,Condemned/Dead End Property,2020-12-03,Pass,0,0011A00235000000,Active,40.4412621566,-79.979691369,Crawford-Roberts,6,3
42906,0185S00058000000,"5622 DELLAGLEN AVE, Pittsburgh, PA 15207",15207,MS CAPITAL GROUP PITTSBURGH LLC,Condemned/Dead End Property,2020-08-27,Fail,1,0185S00058000000,Active,40.3672019816,-79.9199499228,Lincoln Place,5,31
42907,0014N00219000000,"418 ROCHELLE ST, Pittsburgh, 15210",15210,GREEN NICOLE,Condemned/Dead End Property,2025-05-12,Fail,3,0014N00219000000,Active,40.4147469526,-79.9961923264,Knoxville,3,30
42908,0027B00097000000,"3216 CAMP ST, Pittsburgh, 15219",15219,SOUTHERS MARK C,Condemned/Dead End Property,2024-05-14,Fail,1,0027B00097000000,Active,40.4518320374,-79.958763234,Upper Hill,6,5
42909,0015L00050000000,"56 LAFFERTY AVE, Pittsburgh, 15210",15210,HAYES JAMES HAROLD JR & IRIS DENISE (W),Condemned/Dead End Property,2020-09-03,Pass,0,0015L00050000000,Active,40.4174140647,-80.0076376141,Beltzhoover,3,18
42910,0046G00142000000,No primary address specified,15214,CITY OF PITTSBURGH,Condemned/Dead End Property,2023-08-22,,,0046G00142000000,Active,40.4675426049,-80.0050202229,Perry South,6,26
42911,0057C00112000A00,No primary address specified,15207,CITY OF PITTSBURGH,Condemned/Dead End Property,2024-03-27,Fail,1,0057C00112000A00,Active,40.4022527629,-79.9408954067,Hazelwood,5,15
42912,0055S00051000000,No primary address specified,15207,KELLY CARROLL & DOROTHY L (W),Condemned/Dead End Property,2025-11-05,,,0055S00051000000,Active,40.4142730529,-79.9329139658,Hazelwood,5,15
42913,0022R00240000000,"1204 HAMLIN ST, Pittsburgh, 15233",15233,CITY OF PITTSBURGH,Condemned/Dead End Property,2025-12-04,Fail,2,0022R00240000000,Active,40.4533646212,-80.0227500746,Manchester,6,21
42914,0042J00191000000,"1015 STANHOPE ST, Pittsburgh, 15204",15204,FITCH JAMES H,Condemned/Dead End Property,2020-12-03,Pass,0,0042J00191000000,Active,40.4567020444,-80.0631505688,Sheraden,2,20
42915,0035G00305000000,"730 HAMPSHIRE AVE, Pittsburgh, 15216",15216,"",Condemned/Dead End Property,2023-12-13,Pass,0,0035G00305000000,Active,40.4109539936,-80.0216498173,Beechview,4,19
42916,0014P00093000000,"232 ZARA ST, Pittsburgh, 15210",15210,USTVREA LLC,Condemned/Dead End Property,2023-04-28,Pass,0,0014P00093000000,Active,40.4156043812,-79.992144286,Knoxville,3,30
42917,0014P00093000000,"232 ZARA ST, Pittsburgh, 15210",15210,USTVREA LLC,Condemned/Dead End Property,2023-05-17,Fail,2,0014P00093000000,Active,40.4156043812,-79.992144286,Knoxville,3,30
42918,0010F00126000000,"2284 BEDFORD AVE, Pittsburgh, 15219",15219,GRIFFIN YVONNE,Condemned/Dead End Property,2025-02-14,Fail,2,0010F00126000000,Active,40.4490839895,-79.9756946272,Middle Hill,6,5
42919,0174B00130000000,No primary address specified,15208,MOORE MELVIN L,Condemned/Dead End Property,2023-03-06,Pass,0,0174B00130000000,Active,40.461470636,-79.8927890243,Homewood North,9,13
42920,0027B00318000000,"912 CHEROKEE ST, Pittsburgh, 15219",15219,URBAN REDEVELOPMENT AUTHORITY OFPITTSBURGH,Condemned/Dead End Property,2020-08-10,Fail,1,0027B00318000000,Active,40.450649312,-79.9589500923,Upper Hill,6,5
42921,0015D00222000000,"427 EDGEMONT ST, Pittsburgh, 15211",15211,BERN AARE L P,Condemned/Dead End Property,2022-03-17,Fail,2,0015D00222000000,Active,40.422614947,-79.9995264499,Mount Washington,3,18
42922,0015D00222000000,"427 EDGEMONT ST, Pittsburgh, 15211",15211,BERN AARE L P,Condemned/Dead End Property,2024-01-12,,,0015D00222000000,Active,40.422614947,-79.9995264499,Mount Washington,3,18
42923,0173N00305000000,"7035 UPLAND ST, Pittsburgh, 15208",15208,"",Condemned/Dead End Property,2024-03-20,Fail,2,0173N00305000000,Active,40.4630660232,-79.8979366378,Homewood North,9,13
42924,0173N00305000000,"7035 UPLAND ST, Pittsburgh, 15208",15208,"",Condemned/Dead End Property,2024-03-20,,,0173N00305000000,Active,40.4630660232,-79.8979366378,Homewood North,9,13
42925,0124P00079000A00,"6411 MEADOW ST, Pittsburgh, 15206",15206,CITY OF PITTSBURGH,Condemned/Dead End Property,2020-09-04,Fail,2,0124P00079000A00,Active,40.463178699,-79.9118458872,Larimer,9,12
42926,0010M00091000000,"522 FRANCIS ST, Pittsburgh, 15219",15219,GRANDMA ROSE'S PROPERTIES LLC,Condemned/Dead End Property,2023-03-09,Fail,1,0010M00091000000,Active,40.4478820182,-79.9676451445,Middle Hill,6,5
42927,0015G00245000000,"214 CLIMAX ST, Pittsburgh, 15210",15210,GARNER DENNIS T,Condemned/Dead End Property,2023-05-09,Fail,2,0015G00245000000,Active,40.41937205,-80.0036435122,Beltzhoover,3,18
42928,0028P00177000000,"3204 NIAGARA ST, Pittsburgh, 15213",15213,PITTSBURGH LIVING MATTERS LLC,Condemned/Dead End Property,2020-09-08,Pass,0,0028P00177000000,Active,40.4338698476,-79.9599892678,South Oakland,3,4
42929,0025M00112000000,"3041 PULAWSKI Way, Pittsburgh, 15219",15219,TELHO INC,Condemned/Dead End Property,2020-06-01,Fail,1,0025M00112000000,Active,40.4569512929,-79.9683557925,Polish Hill,7,6
42930,0011K00056000A00,"2134 5TH AVE, Pittsburgh, PA 15219",15219,NEWELL JOHN,Condemned/Dead End Property,2020-09-21,Fail,1,0011K00056000A00,Active,40.4378874725,-79.9746262243,Bluff,6,4
42931,0083F00178000000,"621 MELLON ST, Pittsburgh, 15206",15206,WHITE KYONA,Condemned/Dead End Property,2022-04-12,Fail,2,0083F00178000000,Active,40.4693755582,-79.9262930624,East Liberty,9,11
42932,0060P00187000000,No primary address specified,15210,STOKES SOLOMON & ANNIE,Condemned/Dead End Property,2024-06-13,Pass,0,0060P00187000000,Active,40.3946339703,-79.9927038222,Carrick,4,29
42933,0010H00325000000,No primary address specified,15219,JOINER PIERCE W JR,Condemned/Dead End Property,2020-11-04,Pass,0,0010H00325000000,Active,40.4502979769,-79.9674542949,Middle Hill,6,5
42934,0172R00003000000,No primary address specified,15206,COVENIA JAMES & ELSIE M,Condemned/Dead End Property,2025-03-07,Pass,0,0172R00003000000,Active,40.4723095782,-79.8898866956,Lincoln-Lemington-Belmar,9,12
42935,0076J00113000000,"3245 CENTRAL AVE, Pittsburgh, 15212",15212,CITY OF PITTSBURGH,Condemned/Dead End Property,2020-08-17,Fail,2,0076J00113000000,Active,40.4758345074,-80.029260955,Marshall-Shadeland,6,27
42936,0174H00253000000,No primary address specified,15221,BARRANTE ANTHONY A,Condemned/Dead End Property,2020-10-16,Pass,0,0174H00253000000,Active,40.4576419652,-79.8847444977,Homewood North,9,13
42937,0010K00145000000,"618 PERRY ST, Pittsburgh, 15219",15219,CENTRAL HILL APTS LLC,Condemned/Dead End Property,2025-12-10,Fail,1,0010K00145000000,Active,40.4463237289,-79.97745318,Middle Hill,6,5
42938,0010K00145000000,"618 PERRY ST, Pittsburgh, 15219",15219,CENTRAL HILL APTS LLC,Condemned/Dead End Property,2025-12-10,Fail,1,0010K00145000000,Active,40.4463237289,-79.97745318,Middle Hill,6,5
42939,0010K00145000000,"618 PERRY ST, Pittsburgh, 15219",15219,CENTRAL HILL APTS LLC,Condemned/Dead End Property,2025-12-10,Fail,1,0010K00145000000,Active,40.4463237289,-79.97745318,Middle Hill,6,5
42940,0010K00145000000,"618 PERRY ST, Pittsburgh, 15219",15219,CENTRAL HILL APTS LLC,Condemned/Dead End Property,2025-12-10,Fail,1,0010K00145000000,Active,40.4463237289,-79.97745318,Middle Hill,6,5
42941,0024F00176000000,"1141 SPRING GARDEN AVE, Pittsburgh, 15212",15212,"",Condemned/Dead End Property,2023-08-28,,,0024F00176000000,Active,40.4599758015,-79.9918059562,Spring Garden,1,24
42942,0024F00176000000,"1141 SPRING GARDEN AVE, Pittsburgh, 15212",15212,"",Condemned/Dead End Property,2026-01-29,Fail,1,0024F00176000000,Active,40.4599758015,-79.9918059562,Spring Garden,1,24
42943,0014E00285000000,No primary address specified,15210,CITY OF PITTSBURGH,Condemned/Dead End Property,2023-09-20,Pass,0,0014E00285000000,Active,40.4189380246,-79.9960113572,Allentown,3,18
42944,0042P00308000000,"2965 CHARTIERS AVE, Pittsburgh, 15204",15204,PALADINO JAMES,Condemned/Dead End Property,2020-08-27,Fail,2,0042P00308000000,Active,40.454009728,-80.0582898991,Sheraden,2,20
42945,0042P00308000000,"2965 CHARTIERS AVE, Pittsburgh, 15204",15204,PALADINO JAMES,Condemned/Dead End Property,2025-07-25,,,0042P00308000000,Active,40.454009728,-80.0582898991,Sheraden,2,20
42946,0094F00155000000,"245 SPENCER AVE, Pittsburgh, 15227",15227,BRICKLEY FAMILY LP,Condemned/Dead End Property,2020-10-13,Fail,2,0094F00155000000,Active,40.389704193,-79.9765475859,Carrick,4,29
42947,0033B00005000000,"339 MATHEWS AVE, Pittsburgh, 15210",15210,LAW DEBORAH L,Condemned/Dead End Property,2020-12-23,Fail,1,0033B00005000000,Active,40.4137107503,-79.9947277931,Knoxville,3,30
42948,0033B00005000000,"339 MATHEWS AVE, Pittsburgh, 15210",15210,LAW DEBORAH L,Condemned/Dead End Property,2024-01-17,,,0033B00005000000,Active,40.4137107503,-79.9947277931,Knoxville,3,30
42949,0011E00173000000,"223 LOMBARD ST, Pittsburgh, 15219",15219,W BEST PROPERTIES,Condemned/Dead End Property,2020-09-01,Fail,2,0011E00173000000,Active,40.4397551877,-79.9791096051,Crawford-Roberts,6,3
42950,0095D00352000100,"107 DUFFLAND ST, Pittsburgh, PA 15210",15210,THE RIVERS AUTO LLC,Condemned/Dead End Property,2020-06-16,Fail,2,0095D00352000100,Active,40.392471662,-79.9845617194,Carrick,4,29
42951,0014K00308000000,"214 CHARLES ST, Pittsburgh, 15210",15210,ALSTON DEAN R,Condemned/Dead End Property,2021-05-14,Fail,1,0014K00308000000,Active,40.4163677377,-79.9913978927,Knoxville,3,30
42952,0057G00226000000,No primary address specified,15207,POPE WILLIAM DAVID,Condemned/Dead End Property,2024-06-10,Pass,0,0057G00226000000,Active,40.401400921,-79.9395327129,Hazelwood,5,15
42953,0046K00111000000,"129 LAFAYETTE AVE, Pittsburgh, 15214",15214,CLARK SARA,Condemned/Dead End Property,2025-07-23,Fail,2,0046K00111000000,Active,40.4652526934,-80.0105650374,Perry South,6,26
42954,0046K00111000000,"129 LAFAYETTE AVE, Pittsburgh, 15214",15214,CLARK SARA,Condemned/Dead End Property,2026-01-20,Pass,0,0046K00111000000,Active,40.4652526934,-80.0105650374,Perry South,6,26
42955,0057D00050000000,No primary address specified,15207,ELASCHAT CAROLYN,Condemned/Dead End Property,2024-12-02,Pass,0,0057D00050000000,Active,40.4030416396,-79.9361090169,Hazelwood,5,15
42956,0014D00267000000,"2507 S 18TH ST, Pittsburgh, 15210",15203,REZBA ROLAND R,Condemned/Dead End Property,2020-08-20,Fail,1,0014D00267000000,Active,40.4215883105,-79.9838795506,South Side Slopes,3,17
42957,0009S00212000000,No primary address specified,15219,CLANSY ISIAH & PRISCILLA M,Condemned/Dead End Property,2020-10-19,Pass,0,0009S00212000000,Active,40.4449118434,-79.9830932302,Crawford-Roberts,6,3
42958,0174F00040000000,No primary address specified,15208,CATHIE HENRY JR & NELLIE MAE (W),Condemned/Dead End Property,2020-10-14,Pass,0,0174F00040000000,Active,40.4598199722,-79.8926828166,Homewood North,9,13
42959,0025H00107000000,"314 HARMAR ST, Pittsburgh, PA 15219",15219,AMBE RE LLC,Condemned/Dead End Property,2020-06-17,Pass,0,0025H00107000000,Active,40.4579374299,-79.9682626986,Polish Hill,7,6
42960,0004N00146000000,"287 WADE ST, Pittsburgh, 15211",15211,BURROWS MELANIE,Condemned/Dead End Property,2021-04-21,Fail,1,0004N00146000000,Active,40.4241669207,-80.0125925562,Mount Washington,2,19
42961,0004P00056000000,"80 NORTON ST, Pittsburgh, 15211",15211,RANKIN MALCOLM E,Condemned/Dead End Property,2020-09-03,Fail,2,0004P00056000000,Active,40.4258818624,-80.010529567,Mount Washington,2,19
42962,0004P00056000000,"80 NORTON ST, Pittsburgh, 15211",15211,RANKIN MALCOLM E,Condemned/Dead End Property,2024-10-04,Pass,0,0004P00056000000,Active,40.4258818624,-80.010529567,Mount Washington,2,19
42963,0083E00215000000,"438 N FAIRMOUNT ST, Pittsburgh, 15206",15206,CITY OF BRIDGES COMMUNITY LAND TRUST,Condemned/Dead End Property,2020-06-18,Pass,0,0083E00215000000,Active,40.4684522897,-79.9311215476,Garfield,9,11
42964,0056F00282000000,"172 MARSDEN ST, Pittsburgh, 15207",15207,PITTSBURGH LAND BANK,Condemned/Dead End Property,2020-09-03,Fail,1,0056F00282000000,Active,40.4106439335,-79.9421111004,Hazelwood,5,15
42965,0057C00374000000,No primary address specified,15207,KACZOROWSKI TED,Condemned/Dead End Property,2024-06-26,Pass,0,0057C00374000000,Active,40.403190137,-79.9371048959,Hazelwood,5,15
42966,0057B00193000000,"5280 2ND AVE, Pittsburgh, 15207",15207,WASSERMAN ELI J,Condemned/Dead End Property,2024-08-07,Fail,2,0057B00193000000,Active,40.4040125233,-79.9426909583,Hazelwood,5,15
42967,0042M00170000000,"2941 MERWYN AVE, Pittsburgh, 15204",15204,"",Condemned/Dead End Property,2022-11-10,Pass,0,0042M00170000000,Active,40.4564225292,-80.0516170319,Sheraden,2,20
42968,0174F00078000000,No primary address specified,15208,ZELLARS RAYMOND N,Condemned/Dead End Property,2024-02-02,Pass,0,0174F00078000000,Active,40.4594447088,-79.8928259557,Homewood North,9,13
42969,0027F00039000000,"3116 AVALON ST, Pittsburgh, 15219",15219,"",Condemned/Dead End Property,2021-08-24,Fail,1,0027F00039000000,Active,40.4482955896,-79.9615109232,Terrace Village,6,5
42970,0027F00039000000,"3116 AVALON ST, Pittsburgh, 15219",15219,"",Condemned/Dead End Property,2022-08-22,Pass,0,0027F00039000000,Active,40.4482955896,-79.9615109232,Terrace Village,6,5
42971,0083J00025000000,"305 N FAIRMOUNT ST, Pittsburgh, 15206",15206,SEALY PATRICIA A,Condemned/Dead End Property,2020-07-16,Fail,1,0083J00025000000,Active,40.466646566,-79.9316198623,Garfield,9,11
42972,0062F00006000000,"2336 VODELI ST, Pittsburgh, 15216",15216,CRAMP WILLIAM,Condemned/Dead End Property,2020-09-03,Fail,2,0062F00006000000,Active,40.4016128262,-80.0282977686,Beechview,4,19
42973,0062F00006000000,"2336 VODELI ST, Pittsburgh, 15216",15216,CRAMP WILLIAM,Condemned/Dead End Property,2022-08-08,,,0062F00006000000,Active,40.4016128262,-80.0282977686,Beechview,4,19
42974,0050H00290000000,No primary address specified,15224,PUGH EVERETT W,Condemned/Dead End Property,2022-12-02,Pass,0,0050H00290000000,Active,40.4681329657,-79.9363222224,Garfield,9,10
42975,0095F00007000000,"2122 FAIRLAND ST, Pittsburgh, 15210",15210,"",Condemned/Dead End Property,2024-02-05,Fail,2,0095F00007000000,Active,40.391095233,-79.995185133,Overbrook,4,32
42976,0056N00115000000,"5117 BLAIR ST, Pittsburgh, 15207",15207,CITY OF PITTSBURGH,Condemned/Dead End Property,2024-10-22,Fail,1,0056N00115000000,Active,40.4060258892,-79.9460924071,Hazelwood,5,15
42977,0174K00385000000,"702 STERRETT ST, Pittsburgh, 15208",15208,R T HOMEWOOD LLC,Condemned/Dead End Property,2022-04-08,Fail,2,0174K00385000000,Active,40.4552626231,-79.8945861944,Homewood South,9,13
42978,0174K00385000000,"702 STERRETT ST, Pittsburgh, 15208",15208,R T HOMEWOOD LLC,Condemned/Dead End Property,2024-05-28,Pass,0,0174K00385000000,Active,40.4552626231,-79.8945861944,Homewood South,9,13
42979,0055S00053000000,"1 TESLA ST, Pittsburgh, 15207",15207,"",Condemned/Dead End Property,2024-09-13,Fail,1,0055S00053000000,Active,40.4143479805,-79.9329521731,Hazelwood,5,15
42980,0055S00053000000,"1 TESLA ST, Pittsburgh, 15207",15207,"",Condemned/Dead End Property,2025-05-12,Pass,0,0055S00053000000,Active,40.4143479805,-79.9329521731,Hazelwood,5,15
42981,0124R00027000000,"6542 LADSON ST, Pittsburgh, 15206",15206,"",Condemned/Dead End Property,2020-09-03,Fail,3,0124R00027000000,Active,40.4627018879,-79.907576605,Larimer,9,12
42982,0124R00027000000,"6542 LADSON ST, Pittsburgh, 15206",15206,"",Condemned/Dead End Property,2024-03-01,Pass,0,0124R00027000000,Active,40.4627018879,-79.907576605,Larimer,9,12
42983,0046F00041000000,"28 KENWOOD AVE, Pittsburgh, 15214",15214,"",Condemned/Dead End Property,2022-11-02,Pass,0,0046F00041000000,Active,40.4694988535,-80.0097914723,Perry South,6,26
42984,0036R00136000000,"2703 BANKSVILLE AVE, Pittsburgh, PA 15216",15216,"",Condemned/Dead End Property,2020-08-21,Fail,2,0036R00136000000,Active,40.4057998362,-80.0382383775,Banksville,2,20
42985,0174A00193000000,"7050 KEDRON ST, Pittsburgh, 15208",15208,GALLAGHER JANICE L & GARFIELD DAVID MEACHEM,Condemned/Dead End Property,2025-08-05,Pass,0,0174A00193000000,Active,40.4613279874,-79.8980960314,Homewood North,9,13
42986,0174N00146000000,"538 CLAWSON ST, Pittsburgh, 15208",15208,"",Condemned/Dead End Property,2021-05-03,Fail,2,0174N00146000000,Active,40.4541619991,-79.8986369537,Homewood South,9,13
42987,0033A00240000000,"437 PARKLOW ST, Pittsburgh, 15210",15210,SMITH PHILLIP D JR,Condemned/Dead End Property,2021-10-14,Fail,2,0033A00240000000,Active,40.4132217612,-79.9967541837,Knoxville,3,30
42988,0011K00271000300,"2013 BLVD OF THE ALLIES, Pittsburgh, PA 15219",15219,PITTSBURGH LAND BANK,Condemned/Dead End Property,2020-09-03,Fail,2,0011K00271000300,Active,40.4364452857,-79.9773988286,Bluff,6,1
42989,0060S00216000000,"239 E AGNEW AVE, Pittsburgh, 15210",15210,NEWCASTLE PROPERTY GROUP LLC,Condemned/Dead End Property,2020-11-20,Fail,1,0060S00216000000,Active,40.396578283,-79.9829743526,Carrick,4,29
42990,0060S00216000000,"239 E AGNEW AVE, Pittsburgh, 15210",15210,NEWCASTLE PROPERTY GROUP LLC,Condemned/Dead End Property,2025-11-20,Fail,3,0060S00216000000,Active,40.396578283,-79.9829743526,Carrick,4,29
42991,0046N00364000000,"609 RIDGEWOOD ST, Pittsburgh, 15214",15214,CITY OF PITTSBURGH,Condemned/Dead End Property,2020-09-09,Fail,3,0046N00364000000,Active,40.4625261534,-80.0158026778,Perry South,6,25
42992,0014J00276000000,"437 CHALFONT ST, Pittsburgh, 15210",15210,DUNCAN JASMINE,Condemned/Dead End Property,2020-11-30,Fail,2,0014J00276000000,Active,40.4169038175,-79.9989170401,Beltzhoover,3,18
42993,0077P00210000000,No primary address specified,15214,RUCKER RAYMOND H & MARVA (W),Condemned/Dead End Property,2022-09-09,Pass,0,0077P00210000000,Active,40.474205585,-80.0098967722,Perry South,6,26
42994,0174F00270000000,"7324 RACE ST, Pittsburgh, 15208",15208,CITY OF PITTSBURGH,Condemned/Dead End Property,2020-09-08,Fail,2,0174F00270000000,Active,40.4578499318,-79.8922569781,Homewood North,9,13
42995,0115P00128000000,"722 WOODS RUN AVE, Pittsburgh, 15212",15212,NJDP LLC,Condemned/Dead End Property,2022-09-16,Fail,1,0115P00128000000,Active,40.4821125994,-80.0260705644,Brighton Heights,1,27
42996,0049J00191000B00,"246 ATER Way, Pittsburgh, PA 15201",15201,LEWISBROTHERS0412 LLC,Condemned/Dead End Property,2021-10-18,Fail,2,0049J00191000B00,Active,40.4653104247,-79.9631190321,Lower Lawrenceville,7,6
42997,0014R00065000000,"130 ZARA ST, Pittsburgh, 15210",15210,"",Condemned/Dead End Property,2024-03-11,Fail,2,0014R00065000000,Active,40.4156735202,-79.9896212012,Knoxville,3,30
42998,0010S00005000000,No primary address specified,15219,ROBINSON DIANA,Condemned/Dead End Property,2020-08-24,Fail,1,0010S00005000000,Active,40.445272832,-79.970227173,Terrace Village,6,5
42999,0032F00331000000,No primary address specified,15210,ARRINGTON BURNADINE D,Condemned/Dead End Property,2022-12-07,,,0032F00331000000,Active,40.4103832626,-79.9754983909,St. Clair,3,16
43000,0056C00085000000,"415 FLOWERS AVE, Pittsburgh, 15207",15207,CITY OF PITTSBURGH,Condemned/Dead End Property,2020-09-11,Fail,2,0056C00085000000,Active,40.4122318284,-79.9372836469,Hazelwood,5,15
43001,0046N00065000000,No primary address specified,15214,VETERANS AFFAIRS ADMINISTRATION,Condemned/Dead End Property,2023-10-11,Fail,1,0046N00065000000,Active,40.4644944442,-80.0146835119,Perry South,6,25
43002,0015R00265000000,No primary address specified,15210,MCKNIGHT YARNELL R SR,Condemned/Dead End Property,2023-09-01,,,0015R00265000000,Active,40.4161462415,-80.0046056493,Beltzhoover,3,18
43003,0184E00067000000,"1210 MIFFLIN RD, Pittsburgh, 15207",15207,HARVARD BRETT,Condemned/Dead End Property,2024-08-23,Fail,1,0184E00067000000,Active,40.3712913552,-79.9159098025,Lincoln Place,5,31
43004,0013P00052000000,"309 STERLING ST, Pittsburgh, 15210",15210,SABARESE RONALD,Condemned/Dead End Property,2020-09-09,Fail,2,0013P00052000000,Active,40.414501328,-79.9747184931,Arlington,3,16
43005,0124G00188000000,No primary address specified,15206,PAOLINA JOHN & JEAN,Condemned/Dead End Property,2022-08-30,Pass,0,0124G00188000000,Active,40.4691218526,-79.9071779231,Lincoln-Lemington-Belmar,9,12
43006,0033J00164000000,"117 SCHUCHERT ST, Pittsburgh, 15210",15210,GARDNER BERNARD A & DONNA S (W),Condemned/Dead End Property,2021-07-08,Fail,2,0033J00164000000,Active,40.4081846725,-79.9974214601,Bon Air,4,18
43007,0185S00313000000,"5704 COX AVE, Pittsburgh, 15207",15207,SCHAMING SHEENA,Condemned/Dead End Property,2025-05-29,Fail,1,0185S00313000000,Active,40.366962624,-79.917757197,Lincoln Place,5,31
43008,0060H00300000000,"206 ALRIES ST, Pittsburgh, PA 15210",15210,OAKRIDGE ASSET PROPERTY TRUST,Condemned/Dead End Property,2020-08-20,Fail,2,0060H00300000000,Active,40.3994332651,-79.985306945,Carrick,4,29
43009,0024J00426000000,"834 PERALTA ST, Pittsburgh, PA 15212",15212,834 PERALTA LLC,Condemned/Dead End Property,2023-04-17,Fail,1,0024J00426000000,Active,40.4557433093,-79.9958849967,East Allegheny,1,23
43010,0042C00137000000,No primary address specified,15204,MATTHEWS DAVID & MARGARET A (W),Condemned/Dead End Property,2022-10-10,Pass,0,0042C00137000000,Active,40.4620457278,-80.054506604,Esplen,2,20
43011,0014G00271000000,"952 MANTON Way, Pittsburgh, 15210",15210,EQUITY TRUST COMPANY,Condemned/Dead End Property,2024-02-21,,,0014G00271000000,Active,40.4211259415,-79.990036205,Allentown,3,18
43012,0014K00040000000,"846 LILLIAN ST, Pittsburgh, 15210",15210,"",Condemned/Dead End Property,2020-09-03,Fail,2,0014K00040000000,Active,40.4185931708,-79.9918494359,Allentown,3,18
43013,0014K00040000000,"846 LILLIAN ST, Pittsburgh, 15210",15210,"",Condemned/Dead End Property,2025-02-28,Fail,1,0014K00040000000,Active,40.4185931708,-79.9918494359,Allentown,3,18
43014,0091E00023000000,"297 BALDWIN RD, Pittsburgh, 15207",15207,FALCE KENNETH A & EDWARD A STARK,Condemned/Dead End Property,2021-10-11,Fail,1,0091E00023000000,Active,40.3898364596,-79.9325783677,Hays,5,31
43015,0091E00023000000,"297 BALDWIN RD, Pittsburgh, 15207",15207,FALCE KENNETH A & EDWARD A STARK,Condemned/Dead End Property,2025-01-24,Fail,1,0091E00023000000,Active,40.3898364596,-79.9325783677,Hays,5,31
43016,0024D00135000000,"1516 VALENTINE ST, Pittsburgh, 15212",15212,5 BORO MAINTENANCE ELECTRICAL &CONSTRUCTION LLC,Condemned/Dead End Property,2023-03-03,,,0024D00135000000,Active,40.4620379653,-79.9850379195,Troy Hill,1,24
43017,0024D00135000000,"1516 VALENTINE ST, Pittsburgh, 15212",15212,5 BORO MAINTENANCE ELECTRICAL &CONSTRUCTION LLC,Condemned/Dead End Property,2023-03-03,Fail,1,0024D00135000000,Active,40.4620379653,-79.9850379195,Troy Hill,1,24
43018,0014K00113000000,"308 ORCHARD PL, Pittsburgh, 15210",15210,"",Condemned/Dead End Property,2023-11-06,Fail,3,0014K00113000000,Active,40.4177864607,-79.9936814997,Knoxville,3,30
43019,0010L00156000000,"2405 WYLIE AVE, Pittsburgh, 15219",15219,BUFORD GROVER C,Condemned/Dead End Property,2024-03-22,Fail,2,0010L00156000000,Active,40.4476550531,-79.9732033041,Middle Hill,6,5
43020,0010D00250000000,"647 HOLLACE ST, Pittsburgh, 15219",15219,CLAYBROOKS RONNIE & JACQUELINE (W),Condemned/Dead End Property,2020-07-23,Fail,2,0010D00250000000,Active,40.4509654233,-79.9682785245,Middle Hill,6,5
43021,0010D00250000000,"647 HOLLACE ST, Pittsburgh, 15219",15219,CLAYBROOKS RONNIE & JACQUELINE (W),Condemned/Dead End Property,2021-02-18,Fail,1,0010D00250000000,Active,40.4509654233,-79.9682785245,Middle Hill,6,5
43022,0121K00313000000,"6925 GREENWOOD ST, Pittsburgh, PA 15206",15206,RESIDENTIAL CREDIT OPPORTUNITIES TRUSTVII-A,Condemned/Dead End Property,2024-01-09,Fail,1,0121K00313000000,Active,40.4850371842,-79.9249222635,Morningside,7,10
43023,0014E00157000000,"527 INDUSTRY ST, Pittsburgh, 15210",15210,"",Condemned/Dead End Property,2020-09-01,Fail,1,0014E00157000000,Active,40.4209548941,-79.9978806182,Beltzhoover,3,18
43024,0014E00157000000,"527 INDUSTRY ST, Pittsburgh, 15210",15210,"",Condemned/Dead End Property,2023-10-06,,,0014E00157000000,Active,40.4209548941,-79.9978806182,Beltzhoover,3,18
43025,0027B00002000000,No primary address specified,15219,GRAVELY JAMES W,Condemned/Dead End Property,2021-02-17,Pass,0,0027B00002000000,Active,40.4527568734,-79.9579146534,Upper Hill,6,5
43026,0026D00010000000,No primary address specified,15224,TIERNO FRANK,Condemned/Dead End Property,2023-02-15,Fail,2,0026D00010000000,Active,40.4616931243,-79.9534291316,Bloomfield,7,8
43027,0042M00056000000,"3014 ZEPHYR AVE, Pittsburgh, 15204",15204,CITY OF PITTSBURGH,Condemned/Dead End Property,2021-04-09,Fail,2,0042M00056000000,Active,40.4568235688,-80.0536350255,Sheraden,2,20
43028,0124H00019000000,"1257 ALBUM ST, Pittsburgh, 15206",15206,"",Condemned/Dead End Property,2020-06-26,Fail,2,0124H00019000000,Active,40.4696727866,-79.9019386175,Lincoln-Lemington-Belmar,9,12
43029,0124H00019000000,"1257 ALBUM ST, Pittsburgh, 15206",15206,"",Condemned/Dead End Property,2024-04-10,Pass,0,0124H00019000000,Active,40.4696727866,-79.9019386175,Lincoln-Lemington-Belmar,9,12
43030,0094F00120000000,"414 KIRK AVE, Pittsburgh, 15227",15227,"",Condemned/Dead End Property,2023-06-30,Pass,0,0094F00120000000,Active,40.3917473433,-79.9769697427,Carrick,4,29
43031,0077N00321000000,"115 HAWKINS AVE, Pittsburgh, PA 15214",15214,PITTSBURGH LAND BANK,Condemned/Dead End Property,2021-03-02,Fail,1,0077N00321000000,Active,40.4722063101,-80.0148513132,Perry South,6,26
43032,0060E00209000000,"1317 NOBLES LN, Pittsburgh, 15210",15210,MCCRANOR JAMES,Condemned/Dead End Property,2022-02-07,Fail,2,0060E00209000000,Active,40.400584639,-79.9976062142,Carrick,4,29
43033,0032E00178000000,"614 RECTENWALD ST, Pittsburgh, 15210",15210,TRISTATE BUILDERS GROUP LLC,Condemned/Dead End Property,2023-07-25,Fail,1,0032E00178000000,Active,40.4094175095,-79.9799545276,Mt. Oliver,3,16
43034,0022B00210000000,No primary address specified,15212,NESTOR GLENN J & ALICE R (W),Condemned/Dead End Property,2025-06-05,Pass,0,0022B00210000000,Active,40.4607997248,-80.0262185517,California-Kirkbride,6,21
43035,0174A00301000000,"7048 HERMITAGE ST, Pittsburgh, 15208",15208,CITY OF PITTSBURGH,Condemned/Dead End Property,2021-10-18,Fail,2,0174A00301000000,Active,40.4607246425,-79.898377065,Homewood North,9,13
43036,0054J00079000000,"405 SALINE ST, Pittsburgh, 15207",15207,KIPILLER TRUST AGREEMENT I,Condemned/Dead End Property,2025-06-16,Fail,1,0054J00079000000,Active,40.4278155226,-79.946558653,Greenfield,5,14
43037,0174L00028000000,"7417 IDLEWILD ST, Pittsburgh, 15208",15208,PIPPINS SHERWIN D,Condemned/Dead End Property,2020-09-01,Fail,3,0174L00028000000,Active,40.4571774995,-79.890721629,Homewood North,9,13
43038,0096J00210000000,"1502 BERKSHIRE AVE, Pittsburgh, 15226",15226,CHEN JESSE,Condemned/Dead End Property,2020-07-21,Fail,2,0096J00210000000,Active,40.3874634229,-80.0134307814,Brookline,4,19
43039,0007B00142000000,"916 MANHATTAN ST, Pittsburgh, PA 15233",15233,TERIS THEODORE,Condemned/Dead End Property,2020-06-05,Fail,1,0007B00142000000,Active,40.4509595335,-80.02516873,Manchester,6,21
43040,0046J00280000000,"229 CHESTER AVE, Pittsburgh, 15214",15214,MILLER HAROLD,Condemned/Dead End Property,2022-09-08,Pass,0,0046J00280000000,Active,40.46703465,-80.0127995104,Perry South,6,26
43041,0046J00280000000,"229 CHESTER AVE, Pittsburgh, 15214",15214,MILLER HAROLD,Condemned/Dead End Property,2024-03-21,Fail,2,0046J00280000000,Active,40.46703465,-80.0127995104,Perry South,6,26
43042,0010D00257000000,No primary address specified,15219,RYAN HERBERT & DELLA,Condemned/Dead End Property,2022-02-14,,,0010D00257000000,Active,40.4506959497,-79.9681099548,Middle Hill,6,5
43043,0057C00088000000,"47 ALMEDA ST, Pittsburgh, 15207",15207,"",Condemned/Dead End Property,2023-11-30,Fail,2,0057C00088000000,Active,40.4035741823,-79.9399726647,Hazelwood,5,15
43044,0057C00088000000,"47 ALMEDA ST, Pittsburgh, 15207",15207,"",Condemned/Dead End Property,2024-03-27,Fail,1,0057C00088000000,Active,40.4035741823,-79.9399726647,Hazelwood,5,15
43045,0014J00123000000,No primary address specified,15210,KELLER CLIFFORD W,Condemned/Dead End Property,2020-09-22,Pass,0,0014J00123000000,Active,40.4185060162,-79.996101935,Allentown,3,18
43046,0023C00002000000,"11 BELLEAU ST, Pittsburgh, 15214",15214,CITY OF PITTSBURGH,Condemned/Dead End Property,2021-01-29,Pass,0,0023C00002000000,Active,40.4623744067,-80.0077287558,Fineview,1,25
43047,0004N00169000000,"28 MARNE Way, Pittsburgh, PA 15211",15211,CITY OF PITTSBURGH,Condemned/Dead End Property,2020-09-03,Fail,2,0004N00169000000,Active,40.4238513444,-80.0129313347,Mount Washington,2,19
43048,0084G00127000000,"243 EMERSON ST, Pittsburgh, 15206",15206,"",Condemned/Dead End Property,2023-07-25,Fail,1,0084G00127000000,Active,40.4580687628,-79.9231388198,Shadyside,8,7
43049,0094N00037000000,"2539 BROWNSVILLE RD #6, Pittsburgh, PA 15210",15210,URBAN REDEVELOPMENT AUTHORITY OF PITTSBURGH,Condemned/Dead End Property,2020-12-03,Fail,2,0094N00037000000,Active,40.3864917556,-79.979058736,Carrick,4,29
43050,0010R00108000000,No primary address specified,15219,ELLISON FREDERICK,Condemned/Dead End Property,2021-02-18,Pass,0,0010R00108000000,Active,40.4454382352,-79.9719116224,Middle Hill,6,5
43051,0033B00249000000,"316 ARABELLA ST, Pittsburgh, 15210",15210,GILSTRAP STEPHEN PAUL SR,Condemned/Dead End Property,2022-08-24,Fail,2,0033B00249000000,Active,40.4123703249,-79.9937345104,Knoxville,3,30
43052,0023H00275000000,"67 FOUNTAIN ST, Pittsburgh, 15212",15212,CLARKE DONALD,Condemned/Dead End Property,2020-07-07,Fail,3,0023H00275000000,Active,40.4587917396,-80.0031886321,Fineview,1,25
43053,0023H00275000000,"67 FOUNTAIN ST, Pittsburgh, 15212",15212,CLARKE DONALD,Condemned/Dead End Property,2023-09-20,Pass,0,0023H00275000000,Active,40.4587917396,-80.0031886321,Fineview,1,25
43054,0056N00199000000,"5110 LADORA Way, Pittsburgh, PA 15207",15207,CITY OF PITTSBURGH,Condemned/Dead End Property,2026-03-03,Fail,1,0056N00199000000,Active,40.4060829653,-79.947172005,Hazelwood,5,15
43055,0095H00096000000,"2219 BROWNSVILLE RD, Pittsburgh, 15210",15210,NEPAL DEWAKAR,Condemned/Dead End Property,2023-11-07,Fail,2,0095H00096000000,Active,40.3908351029,-79.9859213732,Carrick,4,29
43056,0083G00130000000,"727 N BEATTY ST, Pittsburgh, 15206",15206,VARGO LISA J,Condemned/Dead End Property,2025-05-01,Fail,2,0083G00130000000,Active,40.4691932837,-79.9228757944,East Liberty,9,11
43057,0046N00197000000,"2117 WILSON AVE, Pittsburgh, 15214",15214,SHILPI SK,Condemned/Dead End Property,2022-06-08,Fail,2,0046N00197000000,Active,40.4641835578,-80.0127776386,Perry South,6,25
43058,0014P00122000000,"410 GRIMES AVE, Pittsburgh, 15210",15210,ALASKA BULL MOOSE LLC,Condemned/Dead End Property,2020-12-08,Fail,2,0014P00122000000,Active,40.4153387067,-79.9928939748,Knoxville,3,30
43059,0014P00122000000,"410 GRIMES AVE, Pittsburgh, 15210",15210,ALASKA BULL MOOSE LLC,Condemned/Dead End Property,2024-03-27,,,0014P00122000000,Active,40.4153387067,-79.9928939748,Knoxville,3,30
43060,0004S00176000000,"416 IBERIA ST, Pittsburgh, 15211",15211,HALPIN BARBARA D,Condemned/Dead End Property,2021-02-17,Pass,0,0004S00176000000,Active,40.4242313496,-80.0002093571,Mount Washington,3,18
43061,0004S00176000000,"416 IBERIA ST, Pittsburgh, 15211",15211,HALPIN BARBARA D,Condemned/Dead End Property,2023-03-06,Fail,2,0004S00176000000,Active,40.4242313496,-80.0002093571,Mount Washington,3,18
43062,0022L00226000000,"1122 LIVERPOOL ST, Pittsburgh, 15233",15233,CITY OF PITTSBURGH,Condemned/Dead End Property,2023-03-29,Fail,2,0022L00226000000,Active,40.4559200536,-80.0226227818,Manchester,6,21
43063,0014E00071000000,No primary address specified,15210,FRENCH JAMES & DONA JO WHITE,Condemned/Dead End Property,2024-01-08,,,0014E00071000000,Active,40.4192680188,-79.9981496278,Beltzhoover,3,18
43064,0185S00270000000,"1105 STOCK ST, Pittsburgh, PA 15207",15207,UDDIN MD SALA,Condemned/Dead End Property,2024-10-15,Fail,1,0185S00270000000,Active,40.3665491035,-79.9172032976,Lincoln Place,5,31
43065,0045M00024000000,"2443 N CHARLES ST, Pittsburgh, PA 15214",15214,CITY OF PITTSBURGH,Condemned/Dead End Property,2024-11-25,Fail,1,0045M00024000000,Active,40.4663517471,-80.0201543583,Perry South,6,26
43066,0125A00207000000,"228 MAYFLOWER ST, Pittsburgh, 15206",15206,EAST LIBERTY DEVELOPMENT INC,Condemned/Dead End Property,2021-08-31,Fail,1,0125A00207000000,Active,40.461562321,-79.9132399026,Larimer,9,12
43067,0125A00207000000,"228 MAYFLOWER ST, Pittsburgh, 15206",15206,EAST LIBERTY DEVELOPMENT INC,Condemned/Dead End Property,2024-02-15,,,0125A00207000000,Active,40.461562321,-79.9132399026,Larimer,9,12
43068,0125H00334000000,"7005 1/2 BENNETT ST, Pittsburgh, 15208",15208,VALKYRIE REAL ESTATE LLC,Condemned/Dead End Property,2022-03-30,Fail,2,0125H00334000000,Active,40.4576777956,-79.9011016631,Homewood South,9,13
43069,0174L00005000000,No primary address specified,15208,MCCLESTER MILDRED,Condemned/Dead End Property,2026-01-20,,,0174L00005000000,Active,40.4574697035,-79.8906060517,Homewood North,9,13
43070,0014G00302000000,No primary address specified,15210,DYBIEC EDWARD J & NETTIE M,Condemned/Dead End Property,2023-06-26,Pass,0,0014G00302000000,Active,40.4208178517,-79.988098594,South Side Slopes,3,17
43071,0174L00310000000,No primary address specified,15208,ROGERS DOLORES,Condemned/Dead End Property,2022-04-01,Pass,0,0174L00310000000,Active,40.4569938998,-79.8891118663,Homewood North,9,13
43072,0174K00030000000,"7310 IDLEWILD ST, Pittsburgh, 15208",15208,WESLEY DAISY,Condemned/Dead End Property,2025-12-02,,,0174K00030000000,Active,40.457357995,-79.8933678675,Homewood North,9,13
43073,0174K00030000000,"7310 IDLEWILD ST, Pittsburgh, 15208",15208,WESLEY DAISY,Condemned/Dead End Property,2026-02-12,Fail,2,0174K00030000000,Active,40.457357995,-79.8933678675,Homewood North,9,13
43074,0174B00228000000,"7333 MOUNT VERNON ST, Pittsburgh, 15208",15208,TEDDER DOMINIC W,Condemned/Dead End Property,2022-05-13,Fail,2,0174B00228000000,Active,40.4606190575,-79.8915079991,Homewood North,9,13
43075,0026D00008000000,"416 ELLA ST, Pittsburgh, 15224",15224,"",Condemned/Dead End Property,2021-02-18,Fail,2,0026D00008000000,Active,40.4615965238,-79.9532936957,Bloomfield,7,8
43076,0026D00008000000,"416 ELLA ST, Pittsburgh, 15224",15224,"",Condemned/Dead End Property,2023-02-15,Fail,1,0026D00008000000,Active,40.4615965238,-79.9532936957,Bloomfield,7,8
43077,0015M00297000000,"306 CHALFONT ST, Pittsburgh, 15210",15210,CLARK IDA L,Condemned/Dead End Property,2023-09-05,,,0015M00297000000,Active,40.4164273832,-80.0019401377,Beltzhoover,3,18
43078,0015M00297000000,"306 CHALFONT ST, Pittsburgh, 15210",15210,CLARK IDA L,Condemned/Dead End Property,2023-09-05,Fail,2,0015M00297000000,Active,40.4164273832,-80.0019401377,Beltzhoover,3,18
43079,0026N00092000000,"3368 WEBSTER AVE, Pittsburgh, 15219",15219,"",Condemned/Dead End Property,2024-02-29,Fail,3,0026N00092000000,Active,40.4541452529,-79.962665475,Upper Hill,6,5
43080,0026N00092000000,"3368 WEBSTER AVE, Pittsburgh, 15219",15219,"",Condemned/Dead End Property,2024-02-29,Fail,1,0026N00092000000,Active,40.4541452529,-79.962665475,Upper Hill,6,5
43081,0014G00062000000,No primary address specified,15210,TRZCINSKI JEROME,Condemned/Dead End Property,2020-12-09,Pass,0,0014G00062000000,Active,40.419002977,-79.9902471938,Allentown,3,18
43082,0080G00201000000,"5116 DRESDEN Way, Pittsburgh, PA 15201",15201,CITY OF PITTSBURGH,Condemned/Dead End Property,2020-06-19,Fail,2,0080G00201000000,Active,40.4784901984,-79.954875665,Upper Lawrenceville,7,10
43083,0173B00121000000,"1614 LINCOLN AVE, Pittsburgh, 15206",15206,"",Condemned/Dead End Property,2020-09-03,Fail,2,0173B00121000000,Active,40.470684342,-79.8919768582,Lincoln-Lemington-Belmar,9,12
43084,0173B00121000000,"1614 LINCOLN AVE, Pittsburgh, 15206",15206,"",Condemned/Dead End Property,2022-08-29,Pass,0,0173B00121000000,Active,40.470684342,-79.8919768582,Lincoln-Lemington-Belmar,9,12
43085,0011K00075000000,"4 SENECA ST, Pittsburgh, PA 15219",15219,ECKENRODE LINDA S,Condemned/Dead End Property,2021-01-13,Fail,2,0011K00075000000,Active,40.4374240176,-79.9757100997,Bluff,6,4
43086,0015L00238000000,No primary address specified,15210,EVANS WILLIAM H & THERESA O (W),Condemned/Dead End Property,2024-08-19,Pass,0,0015L00238000000,Active,40.4174447959,-80.0052279978,Beltzhoover,3,18
43087,0046A00123000000,No primary address specified,15214,DOOLEY JAMES R & JUDITH K (W),Condemned/Dead End Property,2025-09-03,Pass,0,0046A00123000000,Active,40.4712196188,-80.0134045709,Perry South,6,26
43088,0020R00009000000,"726 BUCYRUS ST, Pittsburgh, 15220",15220,OVERTON JAMES R,Condemned/Dead End Property,2023-01-24,Fail,1,0020R00009000000,Active,40.4452804257,-80.0405838436,Elliott,2,20
43089,0020R00009000000,"726 BUCYRUS ST, Pittsburgh, 15220",15220,OVERTON JAMES R,Condemned/Dead End Property,2024-09-24,Fail,2,0020R00009000000,Active,40.4452804257,-80.0405838436,Elliott,2,20
43090,0020R00002000000,"728 RUDOLPH ST, Pittsburgh, 15220",15220,CITY OF PITTSBURGH,Condemned/Dead End Property,2020-09-09,Fail,1,0020R00002000000,Active,40.4454221851,-80.0409698465,Elliott,2,20
43091,0050M00050000000,"5335 KINCAID ST, Pittsburgh, 15224",15224,CITY OF PITTSBURGH,Condemned/Dead End Property,2020-05-28,Fail,3,0050M00050000000,Active,40.4665479289,-79.9365011594,Garfield,9,10
43092,0076N00200000000,"3054 FREDERICK ST, Pittsburgh, 15212",15212,OLD CHRISTOPHER & SAMANTHA,Condemned/Dead End Property,2020-11-12,Fail,1,0076N00200000000,Active,40.473276456,-80.0305494955,Marshall-Shadeland,6,27
43093,0174K00324000000,"7346 BENNETT ST, Pittsburgh, 15208",15208,CITY OF PITTSBURGH,Condemned/Dead End Property,2022-05-16,Fail,2,0174K00324000000,Active,40.4553578292,-79.8927327449,Homewood South,9,13
43094,0174K00117000001,"7313 FRANKSTOWN AVE, Pittsburgh, 15208",15208,ANGELL BOLEN VETERAN ASSN INC,Condemned/Dead End Property,2020-08-28,Fail,2,0174K00117000001,Active,40.4569449038,-79.8935062641,Homewood North,9,13
43095,0174K00117000001,"7313 FRANKSTOWN AVE, Pittsburgh, 15208",15208,ANGELL BOLEN VETERAN ASSN INC,Condemned/Dead End Property,2024-03-01,Pass,0,0174K00117000001,Active,40.4569449038,-79.8935062641,Homewood North,9,13
43096,0046F00176000000,"109 MAYWOOD ST, Pittsburgh, 15214",15214,BODI CHARLES,Condemned/Dead End Property,2020-07-16,Fail,2,0046F00176000000,Active,40.4676109952,-80.0108794908,Perry South,6,26
43097,0046F00176000000,"109 MAYWOOD ST, Pittsburgh, 15214",15214,BODI CHARLES,Condemned/Dead End Property,2022-12-19,Pass,0,0046F00176000000,Active,40.4676109952,-80.0108794908,Perry South,6,26
43098,0044D00230000000,"2845 CALIFORNIA AVE, Pittsburgh, 15212",15212,PRICE DONALD LLOYD JR,Condemned/Dead End Property,2022-09-09,Pass,0,0044D00230000000,Active,40.4700185168,-80.0362413188,Marshall-Shadeland,6,27
43099,0175C00235000000,No primary address specified,15221,WATSON CECELIA,Condemned/Dead End Property,2020-10-20,Pass,0,0175C00235000000,Active,40.4509290688,-79.8889167755,Homewood South,9,13
43100,0010D00252000000,"643 HOLLACE ST, Pittsburgh, 15219",15219,SMITH DARNELL,Condemned/Dead End Property,2020-07-17,Fail,2,0010D00252000000,Active,40.4508895911,-79.9682306852,Middle Hill,6,5
43101,0010C00026000000,"2526 BEDFORD AVE, Pittsburgh, 15219",15219,CITY OF PITTSBURGH,Condemned/Dead End Property,2020-07-10,Fail,2,0010C00026000000,Active,40.4505154555,-79.971835177,Bedford Dwellings,6,5
43102,0046R00059000000,"1920 MOUNTFORD AVE, Pittsburgh, 15214",15214,CITY OF PITTSBURGH,Condemned/Dead End Property,2020-09-04,Fail,1,0046R00059000000,Active,40.4629651226,-80.007045234,Fineview,1,25
43103,0024F00084000000,"1007 SALTER Way, Pittsburgh, PA 15212",15212,"BEYOND MEASURES INVESTMENTPROPERTIES, LLC",Condemned/Dead End Property,2022-06-02,Fail,1,0024F00084000000,Active,40.4586848092,-79.9947938043,Spring Garden,1,23
43104,0057G00341000000,"1 ALLEGHENY TER, Pittsburgh, 15207",15207,DZIEKAN PATRICIA,Condemned/Dead End Property,2025-06-16,Fail,1,0057G00341000000,Active,40.4008162588,-79.9370605034,Glen Hazel,5,15
43105,0124N00392000000,"504 PAULSON AVE, Pittsburgh, 15206",15206,DOBIS WORLDWIDE LLC,Condemned/Dead End Property,2024-10-03,Pass,0,0124N00392000000,Active,40.4633101908,-79.9120128784,Larimer,9,12
43106,0004P00304000000,"222 KRAMER Way, Pittsburgh, PA 15211",15211,ASAN INVESTMENTS LLC,Condemned/Dead End Property,2022-03-22,Fail,1,0004P00304000000,Active,40.4243492006,-80.0079364605,Mount Washington,2,19
43107,0056L00071000000,"234 E ELIZABETH ST, Pittsburgh, 15207",15207,CITY OF PITTSBURGH,Condemned/Dead End Property,2020-07-29,Fail,1,0056L00071000000,Active,40.40744135,-79.9401615921,Hazelwood,5,15
43108,0056L00071000000,"234 E ELIZABETH ST, Pittsburgh, 15207",15207,CITY OF PITTSBURGH,Condemned/Dead End Property,2020-10-25,Pass,0,0056L00071000000,Active,40.40744135,-79.9401615921,Hazelwood,5,15
43109,0013R00273000000,"2501 SPRING ST, Pittsburgh, 15210",15210,L6 HOLDINGS LIMITED,Condemned/Dead End Property,2025-11-17,Fail,2,0013R00273000000,Active,40.4161573758,-79.9714726935,Arlington,3,16
43110,0173C00259000000,"7280 VERONA BLVD, Pittsburgh, 15235",15206,VR NVR LLC,Condemned/Dead End Property,2020-09-09,Fail,2,0173C00259000000,Active,40.4707902915,-79.8884763159,Lincoln-Lemington-Belmar,9,12
43111,0173C00259000000,"7280 VERONA BLVD, Pittsburgh, 15235",15206,VR NVR LLC,Condemned/Dead End Property,2024-03-27,,,0173C00259000000,Active,40.4707902915,-79.8884763159,Lincoln-Lemington-Belmar,9,12
43112,0173P00161000000,No primary address specified,15206,MARTIN JANET LOUISE,Condemned/Dead End Property,2020-12-30,Fail,2,0173P00161000000,Active,40.4627120797,-79.8922645632,Lincoln-Lemington-Belmar,9,12
43113,0174M00389000000,"7801 FRANKSTOWN AVE, Pittsburgh, 15208",15221,LAWSON MICHELLE,Condemned/Dead End Property,2020-08-28,Fail,2,0174M00389000000,Active,40.455400477,-79.8863264322,Homewood North,9,13
43114,0027B00070000000,"770 BRYN MAWR RD, Pittsburgh, PA 15219",15219,CITY OF PITTSBURGH,Condemned/Dead End Property,2020-08-06,Fail,2,0027B00070000000,Active,40.452328111,-79.9606850125,Upper Hill,6,5
43115,0040K00034000000,"169 CLEARVIEW AVE, Pittsburgh, 15205",15205,WICKETT JOHN L,Condemned/Dead End Property,2026-01-27,,,0040K00034000000,Active,40.4369143601,-80.0581575434,Westwood,2,28
43116,0087F00140000000,"5644 MELVIN ST, Pittsburgh, PA 15217",15217,JONES JOHN DAVID,Condemned/Dead End Property,2021-11-02,Fail,1,0087F00140000000,Active,40.4301155974,-79.9256980817,Squirrel Hill South,5,14
43117,0075S00180000000,"3146 LECKY AVE, Pittsburgh, 15212",15212,CHESLA JOSEPH R & ANNA,Condemned/Dead End Property,2020-09-03,Fail,2,0075S00180000000,Active,40.4726331222,-80.0353465304,Marshall-Shadeland,6,27
43118,0075S00180000000,"3146 LECKY AVE, Pittsburgh, 15212",15212,CHESLA JOSEPH R & ANNA,Condemned/Dead End Property,2023-12-11,Pass,0,0075S00180000000,Active,40.4726331222,-80.0353465304,Marshall-Shadeland,6,27
43119,0023B00054000000,"1909 LITHGOW AVE, Pittsburgh, PA 15214",15214,ODETALLAH MUHJAH,Condemned/Dead End Property,2020-09-03,Fail,2,0023B00054000000,Active,40.4620878551,-80.0102993002,Perry South,6,25
43120,0050M00025000000,"5362 ROSETTA ST, Pittsburgh, 15224",15224,FERGUSON ELIZABETH J,Condemned/Dead End Property,2024-09-20,Fail,2,0050M00025000000,Active,40.4669143471,-79.9359774853,Garfield,9,10
43121,0050M00025000000,"5362 ROSETTA ST, Pittsburgh, 15224",15224,FERGUSON ELIZABETH J,Condemned/Dead End Property,2025-03-31,Fail,1,0050M00025000000,Active,40.4669143471,-79.9359774853,Garfield,9,10
43122,0024F00010000000,"952 ITIN ST, Pittsburgh, 15212",15212,CITY OF PITTSBURGH,Condemned/Dead End Property,2026-03-05,Fail,2,0024F00010000000,Active,40.459656833,-79.9949392377,East Allegheny,1,24
43123,0014J00296000000,"510 CURTIN AVE, Pittsburgh, 15210",15210,CITY OF PITTSBURGH,Condemned/Dead End Property,2020-08-04,Fail,3,0014J00296000000,Active,40.4179437093,-79.99908485,Beltzhoover,3,18
43124,0011D00120000000,"28 SEINE Way, Pittsburgh, PA 15213",15213,TURNER MARTHA,Condemned/Dead End Property,2025-07-28,Fail,1,0011D00120000000,Active,40.4419818833,-79.9679315008,West Oakland,6,5
43125,0011D00120000000,"28 SEINE Way, Pittsburgh, PA 15213",15213,TURNER MARTHA,Condemned/Dead End Property,2025-07-28,Fail,1,0011D00120000000,Active,40.4419818833,-79.9679315008,West Oakland,6,5
43126,0045N00224000000,"2341 ATMORE ST, Pittsburgh, 15212",15212,VOGEL WILLIAM A,Condemned/Dead End Property,2023-03-13,,,0045N00224000000,Active,40.463315776,-80.0308636808,Marshall-Shadeland,6,27
43127,0045N00224000000,"2341 ATMORE ST, Pittsburgh, 15212",15212,VOGEL WILLIAM A,Condemned/Dead End Property,2023-03-13,Fail,1,0045N00224000000,Active,40.463315776,-80.0308636808,Marshall-Shadeland,6,27
43128,0046K00329000000,"2330 MAPLE AVE, Pittsburgh, 15214",15214,CITY OF PITTSBURGH,Condemned/Dead End Property,2020-09-03,Fail,2,0046K00329000000,Active,40.4672756151,-80.008265692,Perry South,6,26
43129,0174M00015000000,"8036 FRANKSTOWN AVE, Pittsburgh, 15221",15221,TIPTON ERIC & ADORATION BOYD,Condemned/Dead End Property,2023-05-26,Fail,1,0174M00015000000,Active,40.4552888999,-79.8833999817,East Hills,9,13
43130,0124M00017000000,"6626 DEARY ST, Pittsburgh, 15206",15206,ROSE JAMES H,Condemned/Dead End Property,2025-04-10,Fail,1,0124M00017000000,Active,40.4653240398,-79.9032451778,Lincoln-Lemington-Belmar,9,12
43131,0124S00076000000,"6641 ROWAN ST, Pittsburgh, 15206",15206,COLE JAMES W,Condemned/Dead End Property,2023-12-21,Fail,3,0124S00076000000,Active,40.4646811445,-79.9030402958,Lincoln-Lemington-Belmar,9,12
43132,0124S00076000000,"6641 ROWAN ST, Pittsburgh, 15206",15206,COLE JAMES W,Condemned/Dead End Property,2024-06-03,Pass,0,0124S00076000000,Active,40.4646811445,-79.9030402958,Lincoln-Lemington-Belmar,9,12
43133,0076N00291000000,"3021 WADLOW ST, Pittsburgh, 15212",15212,JOHNSTON AUGUST A & STELLA C (W),Condemned/Dead End Property,2020-09-10,Fail,2,0076N00291000000,Active,40.4725397987,-80.0298095337,Marshall-Shadeland,6,27
43134,0076N00291000000,"3021 WADLOW ST, Pittsburgh, 15212",15212,JOHNSTON AUGUST A & STELLA C (W),Condemned/Dead End Property,2022-09-26,Fail,1,0076N00291000000,Active,40.4725397987,-80.0298095337,Marshall-Shadeland,6,27
43135,0124L00214000000,"6559 ROWAN ST, Pittsburgh, 15206",15206,"",Condemned/Dead End Property,2022-09-15,Fail,1,0124L00214000000,Active,40.4658345635,-79.9048806852,Lincoln-Lemington-Belmar,9,12
43136,0124L00214000000,"6559 ROWAN ST, Pittsburgh, 15206",15206,"",Condemned/Dead End Property,2024-01-16,,,0124L00214000000,Active,40.4658345635,-79.9048806852,Lincoln-Lemington-Belmar,9,12
43137,0047S00179000000,No primary address specified,15212,OMALLEY ADAM P & NANCY J (W),Condemned/Dead End Property,2022-11-08,Pass,0,0047S00179000000,Active,40.4637287778,-79.9846140319,Troy Hill,1,24
43138,0173L00115000000,"1550 OBERLIN ST, Pittsburgh, 15206",15206,AM COTTICA REAL ESTATE LLC,Condemned/Dead End Property,2020-09-08,Pass,0,0173L00115000000,Active,40.4668755273,-79.8898642366,Lincoln-Lemington-Belmar,9,12
43139,0050F00044000000,"4931 KINCAID ST, Pittsburgh, PA 15224",15224,REAL ESTATE DEVELOPMENT OPTIONS LLC,Condemned/Dead End Property,2020-06-05,Fail,2,0050F00044000000,Active,40.4674961623,-79.9432740957,Garfield,9,10
43140,0097D00285000000,"920 ROSSMORE AVE, Pittsburgh, 15226",15226,"",Condemned/Dead End Property,2020-09-09,Fail,2,0097D00285000000,Active,40.3936691544,-80.0171773656,Brookline,4,19
43141,0097D00285000000,"920 ROSSMORE AVE, Pittsburgh, 15226",15226,"",Condemned/Dead End Property,2025-01-31,Pass,0,0097D00285000000,Active,40.3936691544,-80.0171773656,Brookline,4,19
43142,0010J00172000000,No primary address specified,15219,MATLOCK NORMAN GREGORY,Condemned/Dead End Property,2020-10-30,Pass,0,0010J00172000000,Active,40.4456939615,-79.9824934298,Crawford-Roberts,6,3
43143,0050M00078000000,"5349 BROAD ST, Pittsburgh, 15224",15224,CITY OF PITTSBURGH,Condemned/Dead End Property,2020-05-28,Fail,2,0050M00078000000,Active,40.4658324935,-79.9363528957,Garfield,9,10
43144,0011J00191000000,"1806 TUSTIN ST, Pittsburgh, 15219",15219,BENKOVSKI NESINKA,Condemned/Dead End Property,2024-02-05,Pass,0,0011J00191000000,Active,40.4369268968,-79.9811497228,Bluff,6,1
43145,0033K00001000000,"313 REIFERT ST, Pittsburgh, 15210",15210,SMITH CHRISTOPHER,Condemned/Dead End Property,2023-02-06,Fail,1,0033K00001000000,Active,40.4089726471,-79.9944721618,Knoxville,3,30
43146,0033K00001000000,"313 REIFERT ST, Pittsburgh, 15210",15210,SMITH CHRISTOPHER,Condemned/Dead End Property,2023-02-06,,,0033K00001000000,Active,40.4089726471,-79.9944721618,Knoxville,3,30
43147,0013M00150000000,"2815 ARLINGTON AVE, Pittsburgh, 15210",15210,"",Condemned/Dead End Property,2023-02-09,Pass,0,0013M00150000000,Active,40.4176850019,-79.968784983,South Side Slopes,3,16
43148,0035N00165000000,"2008 BROADWAY AVE, Pittsburgh, 15216",15216,CORDONA EDIL ARMANDO MENDEZ,Condemned/Dead End Property,2020-08-25,Fail,2,0035N00165000000,Active,40.4063602772,-80.0290927949,Beechview,4,20
43149,0046R00064000000,"1909 BELLEAU ST, Pittsburgh, 15214",15214,ALEXANDER KENNETH W,Condemned/Dead End Property,2024-09-25,Pass,0,0046R00064000000,Active,40.4625481282,-80.0071182794,Fineview,6,25
43150,0045E00352000000,No primary address specified,15212,NIEBRZYDOWSKI KIMBERLY,Condemned/Dead End Property,2023-02-03,,,0045E00352000000,Active,40.4694682014,-80.029737973,Marshall-Shadeland,6,27
43151,0014J00235000000,"505 CURTIN AVE, Pittsburgh, 15210",15210,DACRON DEVELOPERS LLC,Condemned/Dead End Property,2020-08-27,Fail,2,0014J00235000000,Active,40.4180913746,-79.9985478414,Beltzhoover,3,18
43152,0014J00235000000,"505 CURTIN AVE, Pittsburgh, 15210",15210,DACRON DEVELOPERS LLC,Condemned/Dead End Property,2023-07-07,,,0014J00235000000,Active,40.4180913746,-79.9985478414,Beltzhoover,3,18
43153,0050M00207000000,"5438 HILLCREST ST, Pittsburgh, 15206",15206,UNITY PROPERTIES LLC,Condemned/Dead End Property,2022-05-12,Fail,2,0050M00207000000,Active,40.4672928689,-79.9330524187,Garfield,9,11
43154,0024E00269000000,"870 VISTA ST, Pittsburgh, 15212",15212,DRATWA MATTHEW BRANDON,Condemned/Dead End Property,2025-07-08,Fail,2,0024E00269000000,Active,40.4589361322,-79.9962234709,East Allegheny,1,23
43155,0173G00025000000,No primary address specified,15206,SCHWAN WILLIAM C & ROSE R,Condemned/Dead End Property,2020-11-12,Pass,0,0173G00025000000,Active,40.4692308242,-79.8905070488,Lincoln-Lemington-Belmar,9,12
43156,0076R00006000000,"929 SMITHTON AVE, Pittsburgh, 15212",15212,MCKELVEY LAWRENCE E & DEBORAH D (W),Condemned/Dead End Property,2020-12-22,Fail,2,0076R00006000000,Active,40.4745698834,-80.0241458456,Marshall-Shadeland,6,27
43157,0022K00271000000,"1607 MANHATTAN ST, Pittsburgh, 15233",15233,HARRIS ANTHONY L,Condemned/Dead End Property,2021-03-17,Fail,3,0022K00271000000,Active,40.456123724,-80.0272172606,Manchester,6,21
43158,0022K00271000000,"1607 MANHATTAN ST, Pittsburgh, 15233",15233,HARRIS ANTHONY L,Condemned/Dead End Property,2022-09-16,,,0022K00271000000,Active,40.456123724,-80.0272172606,Manchester,6,21
43159,0231R00084000000,"2224 PARK HILL DR, Pittsburgh, 15221",15221,RT EAST HILLS LLC,Condemned/Dead End Property,2020-09-08,Fail,1,0231R00084000000,Active,40.4543097955,-79.8738503264,East Hills,9,13
43160,0011J00023000000,"108 GIST ST #102, Pittsburgh, PA 15219",15219,ECKENRODE ROBERT C,Condemned/Dead End Property,2023-03-17,Fail,1,0011J00023000000,Active,40.4379874071,-79.9796327902,Bluff,6,1
43161,0173C00185000000,"1704 GOPHER ST, Pittsburgh, 15206",15206,CUNNINGHAM ODESSIE & MARY LUE (W),Condemned/Dead End Property,2020-12-29,Fail,3,0173C00185000000,Active,40.4701146781,-79.8884702411,Lincoln-Lemington-Belmar,9,12
43162,0173C00185000000,"1704 GOPHER ST, Pittsburgh, 15206",15206,CUNNINGHAM ODESSIE & MARY LUE (W),Condemned/Dead End Property,2023-07-19,,,0173C00185000000,Active,40.4701146781,-79.8884702411,Lincoln-Lemington-Belmar,9,12
43163,0057B00080000000,"5403 2ND AVE, Pittsburgh, 15207",15207,BARVA STEPHEN,Condemned/Dead End Property,2024-01-29,Pass,0,0057B00080000000,Active,40.4028337764,-79.9416218151,Hazelwood,5,15
43164,0057B00080000000,"5403 2ND AVE, Pittsburgh, 15207",15207,BARVA STEPHEN,Condemned/Dead End Property,2024-01-29,Fail,2,0057B00080000000,Active,40.4028337764,-79.9416218151,Hazelwood,5,15
43165,0077N00102000000,"241 KENNEDY AVE, Pittsburgh, 15214",15214,RUBENSTEIN ESTATES LLC,Condemned/Dead End Property,2020-09-02,Fail,2,0077N00102000000,Active,40.473964879,-80.0120743513,Perry South,6,26
43166,0077N00102000000,"241 KENNEDY AVE, Pittsburgh, 15214",15214,RUBENSTEIN ESTATES LLC,Condemned/Dead End Property,2025-03-25,Pass,0,0077N00102000000,Active,40.473964879,-80.0120743513,Perry South,6,26
43167,0125M00322000000,"6949 HAMILTON AVE, Pittsburgh, 15208",15208,BURGESS WILLIAM H & HAZEL,Condemned/Dead End Property,2020-10-20,Fail,3,0125M00322000000,Active,40.4561106737,-79.9027326731,Homewood West,9,12
43168,0125M00322000000,"6949 HAMILTON AVE, Pittsburgh, 15208",15208,BURGESS WILLIAM H & HAZEL,Condemned/Dead End Property,2024-03-01,Fail,1,0125M00322000000,Active,40.4561106737,-79.9027326731,Homewood West,9,12
43169,0045N00326000000,"2428 CALIFORNIA AVE, Pittsburgh, 15212",15212,O'MALLEY JANE B,Condemned/Dead End Property,2022-09-16,Pass,0,0045N00326000000,Active,40.464631718,-80.0322819121,Marshall-Shadeland,6,27
43170,0033K00075000000,No primary address specified,15210,HOWELLS FRANK G & RUTH C,Condemned/Dead End Property,2024-07-19,Pass,0,0033K00075000000,Active,40.4077968061,-79.9927443185,Knoxville,3,30
43171,0014J00213000000,"510 CEDARHURST ST, Pittsburgh, 15210",15210,MCDANIEL JOSEPHINE,Condemned/Dead End Property,2021-08-31,Fail,2,0014J00213000000,Active,40.4180969578,-79.9982930644,Beltzhoover,3,18
43172,0014J00213000000,"510 CEDARHURST ST, Pittsburgh, 15210",15210,MCDANIEL JOSEPHINE,Condemned/Dead End Property,2022-11-14,Fail,1,0014J00213000000,Active,40.4180969578,-79.9982930644,Beltzhoover,3,18
43173,0077P00257000000,No primary address specified,15214,CITY OF PITTSBURGH,Condemned/Dead End Property,2024-01-05,Pass,0,0077P00257000000,Active,40.472594281,-80.0106447089,Perry South,6,26
43174,0042C00095000000,"306 OREGON ST, Pittsburgh, 15204",15204,"",Condemned/Dead End Property,2024-05-10,Fail,1,0042C00095000000,Active,40.4617680982,-80.0539213912,Esplen,2,20
43175,0042C00095000000,"306 OREGON ST, Pittsburgh, 15204",15204,"",Condemned/Dead End Property,2024-05-10,Fail,2,0042C00095000000,Active,40.4617680982,-80.0539213912,Esplen,2,20
43176,0042C00095000000,"306 OREGON ST, Pittsburgh, 15204",15204,"",Condemned/Dead End Property,2024-05-10,Fail,2,0042C00095000000,Active,40.4617680982,-80.0539213912,Esplen,2,20
43177,0042C00095000000,"306 OREGON ST, Pittsburgh, 15204",15204,"",Condemned/Dead End Property,2024-05-10,Fail,2,0042C00095000000,Active,40.4617680982,-80.0539213912,Esplen,2,20
43178,0042C00095000000,"306 OREGON ST, Pittsburgh, 15204",15204,"",Condemned/Dead End Property,2024-09-20,Pass,0,0042C00095000000,Active,40.4617680982,-80.0539213912,Esplen,2,20
43179,0019R00104000000,"225 KEARNS AVE, Pittsburgh, PA 15220",15220,RAVE RANDALL,Condemned/Dead End Property,2020-09-02,Fail,2,0019R00104000000,Active,40.4340194047,-80.03806515,Westwood,2,20
43180,0013K00135000000,"2025 SPRING ST, Pittsburgh, 15210",15210,"",Condemned/Dead End Property,2024-01-10,Fail,1,0013K00135000000,Active,40.4173296516,-79.9775987407,Arlington,3,16
43181,0010H00103000000,"2535 MAHON ST, Pittsburgh, 15219",15219,"",Condemned/Dead End Property,2020-08-14,Fail,3,0010H00103000000,Active,40.4481749678,-79.9702652797,Middle Hill,6,5
43182,0010H00103000000,"2535 MAHON ST, Pittsburgh, 15219",15219,"",Condemned/Dead End Property,2021-02-18,Fail,1,0010H00103000000,Active,40.4481749678,-79.9702652797,Middle Hill,6,5
43183,0024C00179000000,"1240 SPRING GARDEN AVE, Pittsburgh, 15212",15212,KILIAN MICHAEL,Condemned/Dead End Property,2020-09-01,Pass,0,0024C00179000000,Active,40.4605481608,-79.9901434437,Spring Garden,1,24
43184,0124H00234000000,"1208 PAULSON AVE, Pittsburgh, 15206",15206,HALEY JOHN H & HELEN L (W),Condemned/Dead End Property,2020-09-08,Fail,2,0124H00234000000,Active,40.467994962,-79.9030590692,Lincoln-Lemington-Belmar,9,12
43185,0010G00275000000,"705 WATT LN, Pittsburgh, 15219",15219,TAYLOR WILLA M & SHAWNEE WRIGHT,Condemned/Dead End Property,2020-08-07,Fail,3,0010G00275000000,Active,40.4501940245,-79.9721179338,Bedford Dwellings,6,5
43186,0010G00275000000,"705 WATT LN, Pittsburgh, 15219",15219,TAYLOR WILLA M & SHAWNEE WRIGHT,Condemned/Dead End Property,2021-02-17,Fail,1,0010G00275000000,Active,40.4501940245,-79.9721179338,Bedford Dwellings,6,5
43187,0046J00009000000,"402 CHESTER AVE, Pittsburgh, PA 15214",15214,PATTERSON GABLE & FANNIE GRIFFIN,Condemned/Dead End Property,2023-01-17,Fail,1,0046J00009000000,Active,40.4673318231,-80.0148651827,Perry South,6,26
43188,0125H00338000000,"7013 BENNETT ST, Pittsburgh, 15208",15208,BRUMFIELD DUDLEY & GLORIA J (W),Condemned/Dead End Property,2025-04-04,Pass,0,0125H00338000000,Active,40.4576843613,-79.9007462104,Homewood South,9,13
43189,0056P00059000000,"5129 LYTLE ST, Pittsburgh, 15207",15207,VINCUR GEORGE EUGENE & EDITH,Condemned/Dead End Property,2024-08-27,Fail,1,0056P00059000000,Active,40.4057459754,-79.9448567673,Hazelwood,5,15
43190,0056P00059000000,"5129 LYTLE ST, Pittsburgh, 15207",15207,VINCUR GEORGE EUGENE & EDITH,Condemned/Dead End Property,2024-10-15,Fail,3,0056P00059000000,Active,40.4057459754,-79.9448567673,Hazelwood,5,15
43191,0124N00026000000,"139 AUBURN ST, Pittsburgh, 15206",15206,"",Condemned/Dead End Property,2024-11-07,Fail,2,0124N00026000000,Active,40.4631224028,-79.915586962,Larimer,9,12
43192,0042N00262000000,No primary address specified,15204,COLLURA VINCENT L,Condemned/Dead End Property,2020-09-21,Pass,0,0042N00262000000,Active,40.4527961837,-80.0647439619,Sheraden,2,20
43193,0047S00186000000,"1602 HATTERAS ST, Pittsburgh, 15212",15212,"",Condemned/Dead End Property,2024-10-30,Fail,1,0047S00186000000,Active,40.4634228454,-79.9843439553,Troy Hill,1,24
43194,0231F00050000000,"8442 PARK Way, Pittsburgh, 15235",15221,DAVIS JACQUELINE,Condemned/Dead End Property,2020-09-08,Fail,3,0231F00050000000,Active,40.4595750196,-79.8770357541,East Hills,9,13
43195,0046N00233000000,"2132 WILSON AVE, Pittsburgh, 15214",15214,PRF 100 LLC,Condemned/Dead End Property,2022-06-08,Fail,2,0046N00233000000,Active,40.4647274803,-80.0123236695,Perry South,6,25
43196,0082R00061000000,"936 MELLON ST, Pittsburgh, 15206",15206,HIGHLAND PARK COMMUNITY DEVELOPMENTCORPORATION,Condemned/Dead End Property,2020-09-25,Fail,1,0082R00061000000,Active,40.4732657105,-79.9232893578,Highland Park,7,11
43197,0020F00262000000,"1318 CHARTIERS AVE, Pittsburgh, 15220",15220,SAUNDERS JOHN W & SYLVIA M (W),Condemned/Dead End Property,2020-08-19,Fail,2,0020F00262000000,Active,40.4482627163,-80.0438788623,Elliott,2,20
43198,0020F00262000000,"1318 CHARTIERS AVE, Pittsburgh, 15220",15220,SAUNDERS JOHN W & SYLVIA M (W),Condemned/Dead End Property,2022-10-12,Pass,0,0020F00262000000,Active,40.4482627163,-80.0438788623,Elliott,2,20
43199,0014B00180000000,"836 EUREKA ST, Pittsburgh, 15210",15210,PETTIJOHN KATHLEEN & PAUL A (H),Condemned/Dead End Property,2025-11-05,Pass,0,0014B00180000000,Active,40.4235179882,-79.9924240003,Allentown,3,18
43200,0174S00070000000,No primary address specified,15221,FORD LEONARD C & JANICE (W),Condemned/Dead End Property,2022-09-16,Pass,0,0174S00070000000,Active,40.4537440692,-79.8857816456,Homewood South,9,13
43201,0016S00209000000,"1305 LETTIE HILL ST, Pittsburgh, 15216",15216,KRESS BROTHERS BUILDERS LP,Condemned/Dead End Property,2024-02-06,Fail,1,0016S00209000000,Active,40.4140764642,-80.016369163,Beechview,4,19
43202,0014N00035000000,No primary address specified,15210,SAVIOR BOOKER T & DORIS L (W),Condemned/Dead End Property,2023-11-21,Pass,0,0014N00035000000,Active,40.4145186145,-79.9990340232,Beltzhoover,3,18
43203,0173J00207000000,No primary address specified,15206,MST OF A PROPHET NOBLE DREW ALI REINCARNATED,Condemned/Dead End Property,2022-09-14,Pass,0,0173J00207000000,Active,40.4669792944,-79.8969408072,Lincoln-Lemington-Belmar,9,12
43204,0231R00042000000,"2300 PARK HILL DR, Pittsburgh, 15221",15221,MCKENZIE LUNELLE H,Condemned/Dead End Property,2020-09-03,Fail,2,0231R00042000000,Active,40.4547638867,-79.8740631494,East Hills,9,13
43205,0174K00328000B00,"7351 FLEURY Way, Pittsburgh, PA 15208",15208,CITY OF PITTSBURGH,Condemned/Dead End Property,2020-08-28,Fail,3,0174K00328000B00,Active,40.4552531544,-79.8931269197,Homewood South,9,13
43206,0056N00073000000,"5116 CHAPLAIN Way, Pittsburgh, PA 15207",15207,CITY OF PITTSBURGH,Condemned/Dead End Property,2025-02-21,Fail,2,0056N00073000000,Active,40.4061049332,-79.9458929412,Hazelwood,5,15
43207,0023A00117000000,"29 GERANIUM ST, Pittsburgh, 15214",15214,LARDO ALBERT,Condemned/Dead End Property,2025-06-24,Fail,1,0023A00117000000,Active,40.4613987242,-80.0153189329,Perry South,6,25
43208,0028P00180000000,"3114 NIAGARA ST, Pittsburgh, 15213",15213,"",Condemned/Dead End Property,2022-04-29,Pass,0,0028P00180000000,Active,40.4337406417,-79.9600791738,South Oakland,3,4
43209,0173R00020000000,No primary address specified,15206,GIVENS KATHLEEN,Condemned/Dead End Property,2023-08-22,,,0173R00020000000,Active,40.4633556906,-79.8906097744,Lincoln-Lemington-Belmar,9,12
43210,0014J00087000000,"407 ORCHARD PL, Pittsburgh, 15210",15210,"",Condemned/Dead End Property,2020-09-08,Pass,0,0014J00087000000,Active,40.4181463378,-79.9956293197,Knoxville,3,30
43211,0013R00269000000,"2437 SPRING ST, Pittsburgh, 15210",15210,"",Condemned/Dead End Property,2020-09-09,Fail,2,0013R00269000000,Active,40.4161432145,-79.9717366145,Arlington,3,16
43212,0013R00269000000,"2437 SPRING ST, Pittsburgh, 15210",15210,"",Condemned/Dead End Property,2026-02-20,Pass,0,0013R00269000000,Active,40.4161432145,-79.9717366145,Arlington,3,16
43213,0015N00034000000,"97 DAWN AVE, Pittsburgh, PA 15226",15216,"",Condemned/Dead End Property,2025-10-16,Fail,1,0015N00034000000,Active,40.4142387986,-80.0145915947,Beechview,4,19
43214,0046P00166000000,No primary address specified,15214,GLASS WILLIAM J & GLASS ANNE E,Condemned/Dead End Property,2021-01-29,Pass,0,0046P00166000000,Active,40.4648288306,-80.0108007936,Perry South,6,25
43215,0116N00079000000,"3436 PERRYSVILLE AVE, Pittsburgh, 15214",15214,REGAN PATRICK W,Condemned/Dead End Property,2020-08-03,Fail,2,0116N00079000000,Active,40.4829989475,-80.0126596323,Perry North,1,26
43216,0174P00174000000,"7347 HAMILTON AVE, Pittsburgh, 15208",15208,R T HOMEWOOD LLC,Condemned/Dead End Property,2020-09-01,Fail,2,0174P00174000000,Active,40.4539726934,-79.8937568982,Homewood South,9,13
43217,0174P00174000000,"7347 HAMILTON AVE, Pittsburgh, 15208",15208,R T HOMEWOOD LLC,Condemned/Dead End Property,2024-04-09,,,0174P00174000000,Active,40.4539726934,-79.8937568982,Homewood South,9,13
43218,0054S00170000000,"816 LILAC ST, Pittsburgh, 15217",15217,SHI CHAO & BIN GUO (W),Condemned/Dead End Property,2021-09-15,Fail,1,0054S00170000000,Active,40.4248356426,-79.9348343219,Greenfield,5,15
43219,0095D00180000000,"127 E WOODFORD AVE, Pittsburgh, PA 15210",15210,SPES INVESTMENTS LLC,Condemned/Dead End Property,2024-06-24,Fail,1,0095D00180000000,Active,40.3933676088,-79.9840459306,Carrick,4,29
43220,0057C00222000000,"76 ALMEDA ST, Pittsburgh, 15207",15207,YOUNG RAYMARR,Condemned/Dead End Property,2023-09-28,Fail,3,0057C00222000000,Active,40.4033897946,-79.9387030799,Hazelwood,5,15
43221,0044D00153000000,No primary address specified,15212,BALLARD JAMES & SHIRLEY (W),Condemned/Dead End Property,2022-11-28,Pass,0,0044D00153000000,Active,40.4710937875,-80.0328485275,Marshall-Shadeland,6,27
43222,0174S00358000A00,No primary address specified,15221,SMITH BETTY L,Condemned/Dead End Property,2023-07-11,,,0174S00358000A00,Active,40.453233544,-79.8836849221,East Hills,9,13
43223,0011E00093000000,"1817 5TH AVE, Pittsburgh, 15219",15219,MCGUIRE JAMES A,Condemned/Dead End Property,2020-05-20,Fail,3,0011E00093000000,Active,40.4386157546,-79.980080108,Crawford-Roberts,6,3
43224,0011E00093000000,"1817 5TH AVE, Pittsburgh, 15219",15219,MCGUIRE JAMES A,Condemned/Dead End Property,2021-08-04,Fail,1,0011E00093000000,Active,40.4386157546,-79.980080108,Crawford-Roberts,6,3
43225,0174B00341000000,"7215 HERMITAGE ST, Pittsburgh, 15208",15208,STUART FRED D & ELSIE M,Condemned/Dead End Property,2020-09-01,Fail,2,0174B00341000000,Active,40.4602183782,-79.8944109665,Homewood North,9,13
43226,0174B00341000000,"7215 HERMITAGE ST, Pittsburgh, 15208",15208,STUART FRED D & ELSIE M,Condemned/Dead End Property,2024-08-14,Fail,1,0174B00341000000,Active,40.4602183782,-79.8944109665,Homewood North,9,13
43227,0013A00233000000,"1932 BALDAUF ST, Pittsburgh, 15203",15203,STACHOWICZ MICHAEL FRANCIS,Condemned/Dead End Property,2021-03-10,Pass,0,0013A00233000000,Active,40.4227371091,-79.9796047709,South Side Slopes,3,17
43228,0013A00233000000,"1932 BALDAUF ST, Pittsburgh, 15203",15203,STACHOWICZ MICHAEL FRANCIS,Condemned/Dead End Property,2023-05-08,Fail,2,0013A00233000000,Active,40.4227371091,-79.9796047709,South Side Slopes,3,17
43229,0083G00028000000,"621 N EUCLID AVE, Pittsburgh, 15206",15206,LYLE AUDREY I,Condemned/Dead End Property,2022-09-16,Pass,0,0083G00028000000,Active,40.4686979004,-79.9243856433,East Liberty,9,11
43230,0042M00229000000,"2956 MERWYN AVE, Pittsburgh, 15204",15204,CITY OF PITTSBURGH,Condemned/Dead End Property,2021-04-29,Fail,1,0042M00229000000,Active,40.4570415471,-80.0515818646,Sheraden,2,20
43231,0172N00113000000,"6941 WILTSIE ST, Pittsburgh, 15206",15206,WOODS ANTHONY,Condemned/Dead End Property,2020-09-10,Fail,2,0172N00113000000,Active,40.472982819,-79.8966692524,Lincoln-Lemington-Belmar,9,12
43232,0042N00313000000,"1321 JEFFERS ST, Pittsburgh, PA 15204",15204,PITTSBURGH LAND BANK,Condemned/Dead End Property,2024-01-16,Fail,2,0042N00313000000,Active,40.4532079876,-80.0650645352,Sheraden,2,20
43233,0173N00280000000,"1509 N MURTLAND ST, Pittsburgh, 15208",15208,REISCH ROBERT,Condemned/Dead End Property,2020-07-13,Fail,1,0173N00280000000,Active,40.4635341252,-79.8994018064,Homewood West,9,12
43234,0173E00092000000,"1363 MONTEZUMA ST, Pittsburgh, 15206",15206,TATE CHARMAINE M,Condemned/Dead End Property,2024-02-06,Fail,2,0173E00092000000,Active,40.4689479751,-79.8979780676,Lincoln-Lemington-Belmar,9,12
43235,0173E00092000000,"1363 MONTEZUMA ST, Pittsburgh, 15206",15206,TATE CHARMAINE M,Condemned/Dead End Property,2025-08-05,Pass,0,0173E00092000000,Active,40.4689479751,-79.8979780676,Lincoln-Lemington-Belmar,9,12
43236,0046B00243000000,No primary address specified,15214,PERCY ELIZABETH HARP,Condemned/Dead End Property,2022-06-06,Pass,0,0046B00243000000,Active,40.4715249996,-80.0111802915,Perry South,6,26
43237,0046J00043000000,"409 CHESTER AVE, Pittsburgh, 15214",15214,"",Condemned/Dead End Property,2023-01-17,Fail,1,0046J00043000000,Active,40.4667462948,-80.0150029988,Perry South,6,26
43238,0173A00135000000,"6936 CHURCHLAND ST, Pittsburgh, 15206",15206,"",Condemned/Dead End Property,2026-02-19,Fail,3,0173A00135000000,Active,40.4721757081,-79.897923866,Lincoln-Lemington-Belmar,9,12
43239,0010J00151000000,"632 WOOSTER ST, Pittsburgh, 15219",15219,CITY OF PITTSBURGH,Condemned/Dead End Property,2025-11-14,Fail,2,0010J00151000000,Active,40.4462522139,-79.9786577914,Middle Hill,6,5
43240,0175B00050000000,"538 N BRADDOCK AVE, Pittsburgh, PA 15208",15221,CUTLER FRANKIE DEAN,Condemned/Dead End Property,2020-08-06,Fail,2,0175B00050000000,Active,40.452236245,-79.8912477447,Homewood South,9,13
43241,0022L00105000000,"1222 N FRANKLIN ST, Pittsburgh, 15233",15233,KURNIKOVA MARIA,Condemned/Dead End Property,2025-01-07,Fail,1,0022L00105000000,Active,40.4567104101,-80.0239723841,Manchester,6,21
43242,0175B00146000000,No primary address specified,15208,WELLS RODERICK A D,Condemned/Dead End Property,2020-11-17,Pass,0,0175B00146000000,Active,40.4516723127,-79.8925300471,Homewood South,9,13
43243,0021J00083000000,"2904 SACRAMENTO AVE, Pittsburgh, 15204",15204,STENGEL EDWARD J JR & ELIZABETH M,Condemned/Dead End Property,2024-12-19,Fail,2,0021J00083000000,Active,40.4566682332,-80.0490339065,Sheraden,2,20
43244,0021J00083000000,"2904 SACRAMENTO AVE, Pittsburgh, 15204",15204,STENGEL EDWARD J JR & ELIZABETH M,Condemned/Dead End Property,2025-02-14,Pass,0,0021J00083000000,Active,40.4566682332,-80.0490339065,Sheraden,2,20
43245,0173B00124000000,No primary address specified,15206,COLEMAN CAESAR & CORNELIA T,Condemned/Dead End Property,2023-06-09,,,0173B00124000000,Active,40.470478325,-79.8921227708,Lincoln-Lemington-Belmar,9,12
43246,0057C00107000000,No primary address specified,15207,MCKINNEY CHRISTINE,Condemned/Dead End Property,2024-08-26,Pass,0,0057C00107000000,Active,40.4024614747,-79.9411165576,Hazelwood,5,15
43247,0012R00163000000,"31 ELEANOR ST, Pittsburgh, 15203",15203,BROOKS ANTHONY W & MELISSA M (W),Condemned/Dead End Property,2025-07-29,Fail,1,0012R00163000000,Active,40.4237763255,-79.9723759969,South Side Slopes,3,16
43248,0083E00072000000,"5514 BLACK ST, Pittsburgh, PA 15206",15206,GEB INVESTMENTS PARTNERS LLC,Condemned/Dead End Property,2024-04-10,Pass,0,0083E00072000000,Active,40.4691911632,-79.9295160196,Garfield,9,11
43249,0173A00038000000,"7028 WILTSIE ST, Pittsburgh, 15206",15206,"",Condemned/Dead End Property,2025-12-18,Fail,2,0173A00038000000,Active,40.4716805219,-79.8963296447,Lincoln-Lemington-Belmar,9,12
43250,0174M00181000000,No primary address specified,15221,TURNER G HOLSTON & MARY H,Condemned/Dead End Property,2020-10-16,Pass,0,0174M00181000000,Active,40.4575142137,-79.8848190504,Homewood North,9,13
43251,0013S00198000000,No primary address specified,15210,WOESTER JOSEPH F,Condemned/Dead End Property,2023-07-31,Pass,0,0013S00198000000,Active,40.4148885102,-79.9684474427,Arlington,3,16
43252,0173L00019000000,No primary address specified,15206,TENCH CLINTON C & VERDEAL,Condemned/Dead End Property,2024-07-12,Pass,0,0173L00019000000,Active,40.467133216,-79.8895414274,Lincoln-Lemington-Belmar,9,12
43253,0014J00042000000,"405 JUCUNDA ST, Pittsburgh, PA 15210",15210,WINOVICH PETER J JR & ANINA B WINOVICH,Condemned/Dead End Property,2023-08-03,Pass,0,0014J00042000000,Active,40.4173998445,-79.9955098609,Knoxville,3,30
43254,0173N00246000000,No primary address specified,15208,JACKSON WENDELL MONTRAVILLE & IRENE,Condemned/Dead End Property,2024-03-01,Pass,0,0173N00246000000,Active,40.463343824,-79.8973229235,Homewood North,9,13
43255,0022B00209000000,No primary address specified,15212,WALKER GEORGE E & ALDA LEE,Condemned/Dead End Property,2025-06-04,Pass,0,0022B00209000000,Active,40.4607823874,-80.0262962956,California-Kirkbride,6,21
43256,0055K00278000000,"4537 PARNELL ST, Pittsburgh, 15207",15207,CITY OF PITTSBURGH,Condemned/Dead End Property,2020-09-08,Fail,1,0055K00278000000,Active,40.4163815869,-79.9416936797,Hazelwood,5,15
43257,0174N00313000000,"7240 SUSQUEHANNA ST, Pittsburgh, 15208",15208,PELMON KEITH,Condemned/Dead End Property,2025-03-10,Fail,2,0174N00313000000,Active,40.4529026372,-79.8966693255,Homewood South,9,13
43258,0024E00268000000,"874 VISTA ST, Pittsburgh, PA 15212",15212,COFFEY DAVID,Condemned/Dead End Property,2022-08-05,Pass,0,0024E00268000000,Active,40.4589430943,-79.9961164993,East Allegheny,1,23
43259,0010F00112000000,"2342 BEDFORD AVE, Pittsburgh, PA 15219",15219,"",Condemned/Dead End Property,2023-02-21,Fail,2,0010F00112000000,Active,40.4493871846,-79.9749808238,Middle Hill,6,5
43260,0056L00280000000,"5033 STEELE CT, Pittsburgh, 15207",15207,CITY OF PITTSBURGH,Condemned/Dead End Property,2021-04-21,Fail,3,0056L00280000000,Active,40.4085226566,-79.939344025,Hazelwood,5,15
43261,0056L00280000000,"5033 STEELE CT, Pittsburgh, 15207",15207,CITY OF PITTSBURGH,Condemned/Dead End Property,2021-10-11,Fail,1,0056L00280000000,Active,40.4085226566,-79.939344025,Hazelwood,5,15
43262,0026E00189000000,"1210 HERRON AVE, Pittsburgh, PA 15219",15219,THINNES DONALD,Condemned/Dead End Property,2021-04-22,Fail,1,0026E00189000000,Active,40.4588040366,-79.9654306689,Polish Hill,7,6
43263,0026E00189000000,"1210 HERRON AVE, Pittsburgh, PA 15219",15219,THINNES DONALD,Condemned/Dead End Property,2023-08-25,,,0026E00189000000,Active,40.4588040366,-79.9654306689,Polish Hill,7,6
43264,0014A00105000000,"103 CRAIGHEAD ST, Pittsburgh, 15211",15211,"",Condemned/Dead End Property,2020-08-27,Fail,2,0014A00105000000,Active,40.4220971345,-79.9982652161,Mount Washington,3,18
43265,0014A00105000000,"103 CRAIGHEAD ST, Pittsburgh, 15211",15211,"",Condemned/Dead End Property,2020-11-04,Pass,0,0014A00105000000,Active,40.4220971345,-79.9982652161,Mount Washington,3,18
43266,0014G00137000000,"1415 ARLINGTON AVE, Pittsburgh, 15210",15210,RETHAGE MARY DOERSCHNER & NICOLE FRANCES RETHAGE,Condemned/Dead End Property,2023-11-20,Fail,2,0014G00137000000,Active,40.4197667126,-79.9898430172,Allentown,3,18
43267,0014G00137000000,"1415 ARLINGTON AVE, Pittsburgh, 15210",15210,RETHAGE MARY DOERSCHNER & NICOLE FRANCES RETHAGE,Condemned/Dead End Property,2024-03-27,,,0014G00137000000,Active,40.4197667126,-79.9898430172,Allentown,3,18
43268,0174A00147000000,"7121 KEDRON ST, Pittsburgh, 15208",15208,KEDRON TRUST #7121,Condemned/Dead End Property,2020-09-02,Fail,1,0174A00147000000,Active,40.4613964889,-79.8965497096,Homewood North,9,13
43269,0015P00012000000,"32 SYLVANIA AVE, Pittsburgh, 15210",15210,CITY OF PITTSBURGH,Condemned/Dead End Property,2020-09-10,Fail,2,0015P00012000000,Active,40.4160105957,-80.0084196218,Beltzhoover,3,18
43270,0013L00126000000,"2419 ECCLES ST, Pittsburgh, PA 15210",15210,EAGLE F MANAGEMENT LLC,Condemned/Dead End Property,2024-04-17,Fail,1,0013L00126000000,Active,40.418237012,-79.9717854528,South Side Slopes,3,16
43271,0024J00319000000,"833 EAGLE Way, Pittsburgh, PA 15212",15212,CITY OF PITTSBURGH,Condemned/Dead End Property,2025-01-31,Fail,2,0024J00319000000,Active,40.4566283808,-79.996381496,East Allegheny,1,23
43272,0124M00018000000,"6628 DEARY ST, Pittsburgh, 15206",15206,"",Condemned/Dead End Property,2024-01-08,Fail,1,0124M00018000000,Active,40.4652817474,-79.9031780945,Lincoln-Lemington-Belmar,9,12
43273,0075H00030000000,No primary address specified,15212,CITY OF PITTSBURGH,Condemned/Dead End Property,2020-12-29,Pass,0,0075H00030000000,Active,40.4785096628,-80.0358764191,Brighton Heights,1,27
43274,0030N00125000000,"329 BASSLER ST, Pittsburgh, 15210",15210,"",Condemned/Dead End Property,2020-12-24,Fail,2,0030N00125000000,Active,40.4141778443,-79.9644252155,Arlington,3,16
43275,0030N00125000000,"329 BASSLER ST, Pittsburgh, 15210",15210,"",Condemned/Dead End Property,2025-06-04,Fail,1,0030N00125000000,Active,40.4141778443,-79.9644252155,Arlington,3,16
43276,0026P00022000000,"747 BRYN MAWR RD, Pittsburgh, 15219",15219,CITY OF PITTSBURGH,Condemned/Dead End Property,2020-08-06,Fail,2,0026P00022000000,Active,40.4530040166,-79.9611450032,Upper Hill,6,5
43277,0004F00056000000,"318 NATCHEZ ST, Pittsburgh, 15211",15211,CITY OF PITTSBURGH PROPERTYDEVELOPMENTS INC,Condemned/Dead End Property,2020-09-08,Fail,2,0004F00056000000,Active,40.4290826454,-80.0114694291,Mount Washington,2,19
43278,0184N00242000000,"1137 MARGRAY ST, Pittsburgh, 15207",15207,SCHAMING ALFRED J & MARGARET C (W),Condemned/Dead End Property,2021-10-11,Pass,0,0184N00242000000,Active,40.3673885059,-79.9159744506,Lincoln Place,5,31
43279,0184N00242000000,"1137 MARGRAY ST, Pittsburgh, 15207",15207,SCHAMING ALFRED J & MARGARET C (W),Condemned/Dead End Property,2024-10-15,Fail,1,0184N00242000000,Active,40.3673885059,-79.9159744506,Lincoln Place,5,31
43280,0010K00258000000,"2224 WEBSTER AVE, Pittsburgh, 15219",15219,STATEN IRENE,Condemned/Dead End Property,2020-08-13,Fail,1,0010K00258000000,Active,40.4476314719,-79.9767762404,Middle Hill,6,5
43281,0010K00258000000,"2224 WEBSTER AVE, Pittsburgh, 15219",15219,STATEN IRENE,Condemned/Dead End Property,2021-06-16,Pass,0,0010K00258000000,Active,40.4476314719,-79.9767762404,Middle Hill,6,5
43282,0026P00085000000,"804 CLARISSA ST, Pittsburgh, 15219",15219,CITY OF PITTSBURGH,Condemned/Dead End Property,2020-08-04,Fail,1,0026P00085000000,Active,40.4528875567,-79.9596984521,Upper Hill,6,5
43283,0023G00083000000,No primary address specified,15212,CITY OF PITTSBURGH,Condemned/Dead End Property,2020-09-21,Pass,0,0023G00083000000,Active,40.4583719402,-80.0063694533,Central Northside,1,25
43284,0011E00011000000,"1714 5TH AVE, Pittsburgh, 15219",15219,CARLA ANN ISOLDI IN TRUST FORROMEO ISOLDI & ADOLFO ISOLDI,Condemned/Dead End Property,2020-08-13,Fail,2,0011E00011000000,Active,40.4381782903,-79.9820489754,Bluff,6,1
43285,0057C00109000000,No primary address specified,15207,TOMPKINS RAYMOND,Condemned/Dead End Property,2024-06-18,Pass,0,0057C00109000000,Active,40.402378941,-79.941031212,Hazelwood,5,15
43286,0003R00072000000,"1024 MANOR ST, Pittsburgh, 15203",15203,PIPAS WILLIAM MARK,Condemned/Dead End Property,2023-05-15,Fail,2,0003R00072000000,Active,40.4257631819,-79.987905974,South Side Slopes,3,17
43287,0056N00165000000,No primary address specified,15207,BORDONE ALAN & COLLEEN E (W),Condemned/Dead End Property,2024-08-23,Pass,0,0056N00165000000,Active,40.4053284239,-79.9466951553,Hazelwood,5,15
43288,0042S00091000000,No primary address specified,15204,OTOOLE PATRICK M,Condemned/Dead End Property,2024-03-01,Pass,0,0042S00091000000,Active,40.4529214468,-80.0516431884,Sheraden,2,20
43289,0033B00247000000,"320 ARABELLA ST, Pittsburgh, 15210",15210,"",Condemned/Dead End Property,2020-08-21,Fail,2,0033B00247000000,Active,40.412425595,-79.9938981616,Knoxville,3,30
43290,0033B00247000000,"320 ARABELLA ST, Pittsburgh, 15210",15210,"",Condemned/Dead End Property,2023-11-20,,,0033B00247000000,Active,40.412425595,-79.9938981616,Knoxville,3,30
43291,0042N00177000000,"1204 SUTHERLAND ST, Pittsburgh, 15204",15204,M2 & M3 CAPITAL FUNDING LLC,Condemned/Dead End Property,2020-09-10,Fail,1,0042N00177000000,Active,40.453844385,-80.0627897565,Sheraden,2,20
43292,0042N00177000000,"1204 SUTHERLAND ST, Pittsburgh, 15204",15204,M2 & M3 CAPITAL FUNDING LLC,Condemned/Dead End Property,2022-06-10,,,0042N00177000000,Active,40.453844385,-80.0627897565,Sheraden,2,20
43293,0004S00204000000,"425 EUREKA ST, Pittsburgh, 15211",15211,CARR ROBERT,Condemned/Dead End Property,2020-08-28,Fail,2,0004S00204000000,Active,40.4239490357,-79.9997546164,Mount Washington,3,18
43294,0004S00204000000,"425 EUREKA ST, Pittsburgh, 15211",15211,CARR ROBERT,Condemned/Dead End Property,2023-07-05,,,0004S00204000000,Active,40.4239490357,-79.9997546164,Mount Washington,3,18
43295,0174F00063000000,No primary address specified,15208,ROBINSON JAY C & LIZZIE L (W),Condemned/Dead End Property,2024-07-09,Pass,0,0174F00063000000,Active,40.4597585443,-79.894200032,Homewood North,9,13
43296,0010D00082000000,"2828 1/2 BEDFORD AVE, Pittsburgh, PA 15219",15219,FIELDS DAVID,Condemned/Dead End Property,2020-06-10,Fail,3,0010D00082000000,Active,40.4522269046,-79.9681399332,Middle Hill,6,5
43297,0033A00301000000,"412 ARABELLA ST, Pittsburgh, 15210",15210,CITY OF PITTSBURGH,Condemned/Dead End Property,2020-08-21,Fail,2,0033A00301000000,Active,40.4127060475,-79.9956523824,Knoxville,3,30
43298,0033A00301000000,"412 ARABELLA ST, Pittsburgh, 15210",15210,CITY OF PITTSBURGH,Condemned/Dead End Property,2020-09-21,Pass,0,0033A00301000000,Active,40.4127060475,-79.9956523824,Knoxville,3,30
43299,0050M00022000000,"5360 ROSETTA ST, Pittsburgh, PA 15224",15224,GARFIELD HIGHLANDS LP,Condemned/Dead End Property,2020-06-15,Pass,0,0050M00022000000,Active,40.4669297008,-79.9360871928,Garfield,9,10
43300,0022B00294000000,"1208 KUNKLE AVE, Pittsburgh, 15212",15212,LEGACY TO BUILD REAL ESTATE,Condemned/Dead End Property,2026-01-12,Fail,1,0022B00294000000,Active,40.4603527661,-80.024554654,California-Kirkbride,6,21
43301,0050M00163000000,"214 N AIKEN AVE, Pittsburgh, 15206",15206,BOARDWALK CONSULTING LLC,Condemned/Dead End Property,2022-01-31,Pass,0,0050M00163000000,Active,40.4659395813,-79.9353977426,Garfield,9,11
43302,0124H00135000000,No primary address specified,15206,SOLOMON MARVIN,Condemned/Dead End Property,2023-07-14,Pass,0,0124H00135000000,Active,40.4688763667,-79.9018577603,Lincoln-Lemington-Belmar,9,12
43303,0034N00077000000,"1844 PIONEER AVE, Pittsburgh, 15226",15226,WASIECKO JOSEPH,Condemned/Dead End Property,2024-09-18,Pass,0,0034N00077000000,Active,40.404180121,-80.0155642318,Brookline,4,19
43304,0173N00286000A00,"1508 N MURTLAND ST, Pittsburgh, 15208",15208,GAMBLE KAREN M,Condemned/Dead End Property,2022-04-25,Fail,2,0173N00286000A00,Active,40.4633915138,-79.8989841751,Homewood North,9,13
43305,0027G00043000000,"4341 SCHENLEY FARMS TER, Pittsburgh, PA 15213",15213,"",Condemned/Dead End Property,2022-05-09,Pass,0,0027G00043000000,Active,40.4502052436,-79.9566436881,Upper Hill,6,5
43306,0174J00318000000,"7141 BENNETT ST, Pittsburgh, 15208",15208,ALFRED GROUP LLC,Condemned/Dead End Property,2020-08-21,Fail,2,0174J00318000000,Active,40.4568757192,-79.8972383347,Homewood South,9,13
43307,0057C00334000000,No primary address specified,15207,SCALES PLESANT H & DELORES (W),Condemned/Dead End Property,2025-10-23,Fail,1,0057C00334000000,Active,40.4017396454,-79.9369956906,Hazelwood,5,15
43308,0013N00213000000,"429 PARKWOOD RD, Pittsburgh, 15210",15210,"",Condemned/Dead End Property,2023-10-19,Fail,2,0013N00213000000,Active,40.414531981,-79.9805777173,Arlington,3,16
43309,0046A00184000000,"227 LURAY ST, Pittsburgh, 15214",15214,SINGLETON JOHN ROBERT JR,Condemned/Dead End Property,2023-06-13,,,0046A00184000000,Active,40.471511581,-80.0141996383,Perry South,6,26
43310,0046A00184000000,"227 LURAY ST, Pittsburgh, 15214",15214,SINGLETON JOHN ROBERT JR,Condemned/Dead End Property,2024-02-21,Pass,0,0046A00184000000,Active,40.471511581,-80.0141996383,Perry South,6,26
43311,0013L00118000000,"2439 ARLINGTON AVE, Pittsburgh, 15210",15210,HILLTOP REDEVELOPMENT LLC,Condemned/Dead End Property,2024-07-22,Fail,1,0013L00118000000,Active,40.4178500567,-79.9713675182,South Side Slopes,3,16
43312,0176A00146000A00,"2 FLOTILLA Way, Pittsburgh, PA 15221",15221,OSLOSKY CHRISTOPHER,Condemned/Dead End Property,2024-05-01,Fail,1,0176A00146000A00,Active,40.4424954443,-79.8964825416,Point Breeze,9,14
43313,0022K00346000000,"1301 N FRANKLIN ST, Pittsburgh, 15233",15233,GREENFIELD HOLDINGS LLC,Condemned/Dead End Property,2020-07-07,Fail,1,0022K00346000000,Active,40.455910668,-80.0253970833,Manchester,6,21
43314,0173A00205000000,"1363 PAULSON AVE, Pittsburgh, PA 15206",15206,RAINEY ADRIENNE MURRAY,Condemned/Dead End Property,2020-09-08,Fail,1,0173A00205000000,Active,40.4699590812,-79.8986545626,Lincoln-Lemington-Belmar,9,12
43315,0027B00122000000,"3208 CAMP ST, Pittsburgh, 15219",15219,NYVT INVESTMENT INC,Condemned/Dead End Property,2024-05-14,Fail,2,0027B00122000000,Active,40.4516831388,-79.9588507388,Upper Hill,6,5
43316,0010M00020000000,No primary address specified,15219,WILLIAMS MARGUERITE,Condemned/Dead End Property,2021-08-04,Pass,0,0010M00020000000,Active,40.4466427641,-79.9702694171,Middle Hill,6,5
43317,0050M00301000000,"5474 BROAD ST, Pittsburgh, 15206",15206,"",Condemned/Dead End Property,2020-05-28,Fail,1,0050M00301000000,Active,40.4650899764,-79.9330147015,Garfield,9,11
43318,0010H00102000000,"2537 MAHON ST, Pittsburgh, 15219",15219,WALKER ARZETTA & KAMYA LYNN WALKER,Condemned/Dead End Property,2020-08-14,Fail,3,0010H00102000000,Active,40.4481988804,-79.9702022104,Middle Hill,6,5
43319,0173J00362000000,"1332 GROTTO ST, Pittsburgh, 15206",15206,RAINEY MAJOR,Condemned/Dead End Property,2021-01-15,Fail,1,0173J00362000000,Active,40.4671609573,-79.896029098,Lincoln-Lemington-Belmar,9,12
43320,0095R00151000000,"407 OLIVET AVE, Pittsburgh, 15210",15210,"",Condemned/Dead End Property,2024-08-20,Fail,2,0095R00151000000,Active,40.3857266551,-79.9893689214,Carrick,4,29
43321,0045S00104000000,"628 CHAUTAUQUA ST, Pittsburgh, 15214",15214,HUMPHRIES ESSIE,Condemned/Dead End Property,2025-03-28,Fail,2,0045S00104000000,Active,40.464324838,-80.0177101572,Perry South,6,25
43322,0045S00104000000,"628 CHAUTAUQUA ST, Pittsburgh, 15214",15214,HUMPHRIES ESSIE,Condemned/Dead End Property,2025-06-02,Pass,0,0045S00104000000,Active,40.464324838,-80.0177101572,Perry South,6,25
43323,0035H00069000000,"1532 ORANGEWOOD AVE, Pittsburgh, PA 15216",15216,ONE DAY 100 LLC,Condemned/Dead End Property,2022-02-03,Pass,0,0035H00069000000,Active,40.4111336603,-80.0185872724,Beechview,4,19
43324,0045A00268000000,"1256 DICKSON ST, Pittsburgh, PA 15212",15212,GEIGER JAMES P & LINDA (W),Condemned/Dead End Property,2025-03-03,,,0045A00268000000,Active,40.4700661966,-80.0296938641,Marshall-Shadeland,6,27
43325,0024J00258000000,"829 SPRING GARDEN AVE, Pittsburgh, 15212",15212,"",Condemned/Dead End Property,2023-08-14,Pass,0,0024J00258000000,Active,40.4573804502,-79.9966368094,East Allegheny,1,23
43326,0023B00201000000,"1683 PERRYSVILLE AVE #3, Pittsburgh, PA 15212",15212,RISCOTT INVESTMENTS LLC,Condemned/Dead End Property,2020-09-08,Fail,2,0023B00201000000,Active,40.4606620935,-80.0091951824,Central Northside,1,25
43327,0095P00075000000,"2405 SAW MILL RUN BLVD, Pittsburgh, PA 15234",15227,3230 WAINBELL AVENUE LLC,Condemned/Dead End Property,2026-02-11,Fail,1,0095P00075000000,Active,40.3846719625,-79.9947108193,Overbrook,4,32
43328,0174K00101000000,"7225 FRANKSTOWN AVE, Pittsburgh, PA 15208",15208,BLACK RONALD SR,Condemned/Dead End Property,2022-04-27,Fail,2,0174K00101000000,Active,40.4573739312,-79.895036842,Homewood North,9,13
43329,0023D00115000000,"8 CARRIE ST, Pittsburgh, 15212",15212,PRF 100 LLC,Condemned/Dead End Property,2021-10-06,Fail,2,0023D00115000000,Active,40.4611453024,-80.0022582287,Fineview,1,25
43330,0023G00121000000,"1402 LORAINE ST, Pittsburgh, PA 15212",15212,TOWNES KWAME LATEEF,Condemned/Dead End Property,2022-06-07,Fail,2,0023G00121000000,Active,40.4577604922,-80.0058848127,Central Northside,1,25
43331,0011J00024000000,"106 GIST ST #102, Pittsburgh, PA 15219",15219,BRGS LLC,Condemned/Dead End Property,2023-03-17,Fail,1,0011J00024000000,Active,40.4380370134,-79.9796277114,Bluff,6,1
43332,0033E00231000000,"420 DAYTONA ST, Pittsburgh, 15210",15210,"",Condemned/Dead End Property,2024-04-02,Fail,2,0033E00231000000,Active,40.4107643721,-79.9958075166,Knoxville,3,30
43333,0033E00301000000,"418 ALICE ST, Pittsburgh, 15210",15210,"",Condemned/Dead End Property,2025-05-15,Fail,1,0033E00301000000,Active,40.4099280708,-79.996034303,Knoxville,3,30
43334,0034G00074000000,"406 TIMBERLAND AVE, Pittsburgh, 15226",15226,CITY OF PITTSBURGH,Condemned/Dead End Property,2025-06-02,Fail,2,0034G00074000000,Active,40.4099613062,-80.0065674219,Bon Air,4,18
43335,0021E00088000000,"1007 POWELL AVE, Pittsburgh, 15204",15204,STREB ROBERT E & CHRISTY D SHORT,Condemned/Dead End Property,2024-05-03,Fail,3,0021E00088000000,Active,40.4578809531,-80.0458620606,Esplen,2,20
43336,0021E00088000000,"1007 POWELL AVE, Pittsburgh, 15204",15204,STREB ROBERT E & CHRISTY D SHORT,Condemned/Dead End Property,2024-05-03,Fail,1,0021E00088000000,Active,40.4578809531,-80.0458620606,Esplen,2,20
43337,0021E00088000000,"1007 POWELL AVE, Pittsburgh, 15204",15204,STREB ROBERT E & CHRISTY D SHORT,Condemned/Dead End Property,2024-11-21,Pass,0,0021E00088000000,Active,40.4578809531,-80.0458620606,Esplen,2,20
43338,0175D00180000000,"7903 INGLENOOK PL, Pittsburgh, 15208",15221,MCMILLAN JOHN & JESSIE (W),Condemned/Dead End Property,2020-09-01,Fail,2,0175D00180000000,Active,40.4514539078,-79.8855706389,Homewood South,9,13
43339,0175D00180000000,"7903 INGLENOOK PL, Pittsburgh, 15208",15221,MCMILLAN JOHN & JESSIE (W),Condemned/Dead End Property,2026-03-23,,,0175D00180000000,Active,40.4514539078,-79.8855706389,Homewood South,9,13
43340,0057C00092000000,"41 ALMEDA ST, Pittsburgh, 15207",15207,"",Condemned/Dead End Property,2021-09-07,Fail,2,0057C00092000000,Active,40.4035134193,-79.9402355337,Hazelwood,5,15
43341,0057C00092000000,"41 ALMEDA ST, Pittsburgh, 15207",15207,"",Condemned/Dead End Property,2024-06-03,Fail,1,0057C00092000000,Active,40.4035134193,-79.9402355337,Hazelwood,5,15
43342,0125F00311000000,"6617 FRANKSTOWN AVE, Pittsburgh, PA 15206",15206,CITY OF PITTSBURGH,Condemned/Dead End Property,2021-09-17,Fail,2,0125F00311000000,Active,40.4595069262,-79.9101022679,Larimer,9,12
43343,0047R00099000000,"1430 HIGH ST, Pittsburgh, 15212",15212,SPRING GARDEN STORAGE LLC,Condemned/Dead End Property,2020-09-01,Pass,0,0047R00099000000,Active,40.4631324631,-79.9874121717,Spring Garden,1,24
43344,0048E00262000000,"2046 LEY ST, Pittsburgh, 15212",15212,CITY OF PITTSBURGH,Condemned/Dead End Property,2020-07-21,Fail,2,0048E00262000000,Active,40.469177829,-79.9795647817,Troy Hill,1,24
43345,0124M00317000000,"6646 HEDGE ST, Pittsburgh, 15206",15206,SHAH RAHEEL,Condemned/Dead End Property,2020-09-01,Fail,2,0124M00317000000,Active,40.4663162899,-79.9013154873,Lincoln-Lemington-Belmar,9,12
43346,0124M00317000000,"6646 HEDGE ST, Pittsburgh, 15206",15206,SHAH RAHEEL,Condemned/Dead End Property,2026-03-12,,,0124M00317000000,Active,40.4663162899,-79.9013154873,Lincoln-Lemington-Belmar,9,12
43347,0014J00147000000,"512 BELTZHOOVER AVE, Pittsburgh, 15210",15210,WATSON KEVIN L,Condemned/Dead End Property,2022-02-25,Fail,2,0014J00147000000,Active,40.4179147332,-79.9975447832,Beltzhoover,3,18
43348,0173F00306000000,"7305 SOMERSET ST, Pittsburgh, PA 15235",15206,"",Condemned/Dead End Property,2024-05-30,Fail,2,0173F00306000000,Active,40.4679629833,-79.8912590346,Lincoln-Lemington-Belmar,9,12
43349,0125L00204000000,"6919 HAMILTON AVE, Pittsburgh, 15208",15208,CITY OF PITTSBURGH,Condemned/Dead End Property,2020-09-01,Fail,2,0125L00204000000,Active,40.4563447806,-79.9037634347,Homewood West,9,12
43350,0060P00333000000,"212 NEWETT ST, Pittsburgh, 15210",15210,CITY OF PITTSBURGH,Condemned/Dead End Property,2020-09-08,Fail,2,0060P00333000000,Active,40.3966545681,-79.9913263908,Carrick,4,29
43351,0076N00371000000,No primary address specified,15212,BIEL ALBERT J & ANNE E,Condemned/Dead End Property,2022-10-21,Pass,0,0076N00371000000,Active,40.4728746061,-80.0288090631,Marshall-Shadeland,6,27
43352,0026R00164000000,"3510 IOWA ST, Pittsburgh, 15219",15213,MILLIONES MOMAR,Condemned/Dead End Property,2020-07-08,Fail,1,0026R00164000000,Active,40.4532423648,-79.9558073665,Upper Hill,6,5
43353,0050C00047000A00,No primary address specified,15224,CITY OF PITTSBURGH,Condemned/Dead End Property,2020-08-14,Pass,0,0050C00047000A00,Active,40.4719830012,-79.9400961246,Garfield,9,10
43354,0056N00226000000,"5139 LANGHORN ST, Pittsburgh, 15207",15207,CITY OF PITTSBURGH,Condemned/Dead End Property,2020-06-24,Fail,1,0056N00226000000,Active,40.4052657857,-79.9472086637,Hazelwood,5,15
43355,0014J00179000000,No primary address specified,15210,VASSILAROS JESSE G,Condemned/Dead End Property,2026-03-16,,,0014J00179000000,Active,40.4169148507,-79.9978048252,Beltzhoover,3,18
43356,0014G00228000000,"954 INDUSTRY ST, Pittsburgh, 15210",15210,HILLTOP ALLIANCE,Condemned/Dead End Property,2020-09-01,Fail,2,0014G00228000000,Active,40.4206766254,-79.9895987754,Allentown,3,18
43357,0116J00284000000,"216 VENTURE ST, Pittsburgh, 15214",15214,GRAND KEY LLC,Condemned/Dead End Property,2021-07-07,Fail,1,0116J00284000000,Active,40.4854892292,-80.0136590054,Perry North,1,26
43358,0014E00318000000,"205 MILLBRIDGE ST, Pittsburgh, 15210",15210,CITY OF PITTSBURGH,Condemned/Dead End Property,2020-09-04,Fail,2,0014E00318000000,Active,40.4205797211,-79.9955108597,Allentown,3,18
43359,0010G00145000000,No primary address specified,15219,WILLIAMS ROOSEVELT,Condemned/Dead End Property,2024-02-21,Fail,3,0010G00145000000,Active,40.4493873582,-79.9715527196,Middle Hill,6,5
43360,0044D00062000000,"1602 ECKERT ST, Pittsburgh, 15212",15212,STYEN EARL F III,Condemned/Dead End Property,2023-01-03,Pass,0,0044D00062000000,Active,40.4719726335,-80.0355502173,Marshall-Shadeland,6,27
43361,0046K00161000000,"2125 FEDERAL STREET EXT, Pittsburgh, 15214",15214,CITY OF PITTSBURGH,Condemned/Dead End Property,2020-08-28,Fail,1,0046K00161000000,Active,40.4649988668,-80.0103295639,Perry South,6,25
43362,0173C00009000000,No primary address specified,15206,WILLIAMS WESLEY & ELLA,Condemned/Dead End Property,2020-10-20,Pass,0,0173C00009000000,Active,40.4720402353,-79.890814984,Lincoln-Lemington-Belmar,9,12
43363,0231L00058000000,"2401 PARK HILL DR, Pittsburgh, PA 15221",15221,"",Condemned/Dead End Property,2021-04-19,Fail,1,0231L00058000000,Active,40.4556443194,-79.8743095702,East Hills,9,13
43364,0056L00244000000,No primary address specified,15207,BARVA STEPHEN J,Condemned/Dead End Property,2024-06-18,Pass,0,0056L00244000000,Active,40.4078537199,-79.9397186377,Hazelwood,5,15
43365,0056N00200000000,"5112 LADORA Way, Pittsburgh, PA 15207",15207,CITY OF PITTSBURGH,Condemned/Dead End Property,2026-03-03,Fail,1,0056N00200000000,Active,40.4060304892,-79.94715778,Hazelwood,5,15
43366,0013P00009000A00,"2125 JONQUIL Way, Pittsburgh, PA 15210",15210,PLUMMER CHRISTOPHER,Condemned/Dead End Property,2020-08-27,Fail,1,0013P00009000A00,Active,40.4161300994,-79.9765730778,Arlington,3,16
43367,0014K00011000000,No primary address specified,15210,SCHUCHERT KENNETH A & MAUREEN H,Condemned/Dead End Property,2026-01-13,,,0014K00011000000,Active,40.4185335317,-79.9942177985,Allentown,3,18
43368,0024K00299000000,"916 CONSTANCE ST, Pittsburgh, 15212",15212,CITY OF PITTSBURGH,Condemned/Dead End Property,2020-08-27,Fail,1,0024K00299000000,Active,40.4569888891,-79.9941073149,East Allegheny,1,23
43369,0062E00235000000,"8 WENZELL PL, Pittsburgh, 15216",15216,GREGORY KAREN L,Condemned/Dead End Property,2020-09-10,Fail,1,0062E00235000000,Active,40.3996205692,-80.0309362921,Beechview,4,19
43370,0062E00235000000,"8 WENZELL PL, Pittsburgh, 15216",15216,GREGORY KAREN L,Condemned/Dead End Property,2021-09-13,Pass,0,0062E00235000000,Active,40.3996205692,-80.0309362921,Beechview,4,19
43371,0173P00030000000,No primary address specified,15206,STEWART EARL,Condemned/Dead End Property,2024-02-28,Pass,0,0173P00030000000,Active,40.4643767799,-79.8917311265,Lincoln-Lemington-Belmar,9,12
43372,0173F00188000000,"1304 WESTMORELAND AVE, Pittsburgh, 15206",15206,"",Condemned/Dead End Property,2026-01-13,Fail,1,0173F00188000000,Active,40.4678753234,-79.8940948939,Lincoln-Lemington-Belmar,9,12
43373,0090M00169000000,"4405 ARMORHILL AVE, Pittsburgh, 15120",15207,"",Condemned/Dead End Property,2024-09-17,Fail,1,0090M00169000000,Active,40.397013969,-79.9192417505,New Homestead,5,31
43374,0019B00127000000,"1016 WYMORE ST, Pittsburgh, 15220",15220,STEPHENSON DONALD EDWARD III,Condemned/Dead End Property,2020-07-30,Fail,1,0019B00127000000,Active,40.4425548405,-80.0440389789,Elliott,2,20
43375,0055S00050000000,No primary address specified,15207,KELLY CARROLL & DOROTHY L (W),Condemned/Dead End Property,2025-11-05,,,0055S00050000000,Active,40.4142000694,-79.932873937,Hazelwood,5,15
43376,0019B00068000000,"8 ELBON ST, Pittsburgh, 15220",15220,JOHNS WILLIAM T,Condemned/Dead End Property,2024-05-03,Fail,2,0019B00068000000,Active,40.4414573237,-80.0412303173,Elliott,2,20
43377,0019B00068000000,"8 ELBON ST, Pittsburgh, 15220",15220,JOHNS WILLIAM T,Condemned/Dead End Property,2024-11-21,Pass,0,0019B00068000000,Active,40.4414573237,-80.0412303173,Elliott,2,20
43378,0040G00058000000,"1551 CLAIRTONICA ST, Pittsburgh, 15205",15205,GRANACHER HARRISON,Condemned/Dead End Property,2020-08-27,Fail,1,0040G00058000000,Active,40.4391579818,-80.0572511066,Crafton Heights,2,28
43379,0116E00222000000,"18 GOULD AVE, Pittsburgh, 15214",15214,KRAMER ANDREW,Condemned/Dead End Property,2023-02-14,Pass,0,0116E00222000000,Active,40.4876321331,-80.0155675463,Perry North,1,26
43380,0116E00222000000,"18 GOULD AVE, Pittsburgh, 15214",15214,KRAMER ANDREW,Condemned/Dead End Property,2023-09-22,Fail,2,0116E00222000000,Active,40.4876321331,-80.0155675463,Perry North,1,26
43381,0026D00007000000,"418 ELLA ST, Pittsburgh, 15224",15224,"",Condemned/Dead End Property,2023-11-17,Fail,1,0026D00007000000,Active,40.4615575701,-79.9534250267,Bloomfield,7,8
43382,0059N00222000000,"2017 DOWLING ST, Pittsburgh, PA 15210",15210,CHEYSSE INVESTMENTS LLC,Condemned/Dead End Property,2020-08-27,Fail,1,0059N00222000000,Active,40.3968043074,-79.9804435955,Carrick,4,29
43383,0077P00006000000,"226 KENNEDY AVE, Pittsburgh, 15214",15214,"",Condemned/Dead End Property,2020-09-02,Fail,2,0077P00006000000,Active,40.4743638938,-80.0115886785,Perry South,6,26
43384,0027B00123000000,"3206 CAMP ST, Pittsburgh, 15219",15219,HILL MARIE,Condemned/Dead End Property,2023-03-24,Fail,3,0027B00123000000,Active,40.4516438474,-79.9588742149,Upper Hill,6,5
43385,0174C00169000100,"7354 STRANAHAN ST, Pittsburgh, 15206",15206,CITY OF PITTSBURGH,Condemned/Dead End Property,2020-09-10,Fail,2,0174C00169000100,Active,40.4615087426,-79.8902456965,Homewood North,9,13
43386,0011S00018000000,"2610 FORBES AVE, Pittsburgh, 15213",15213,CITY OF PITTSBURGH,Condemned/Dead End Property,2020-08-31,Fail,2,0011S00018000000,Active,40.4356580151,-79.9672530036,South Oakland,6,4
43387,0014J00162000000,"618 BELTZHOOVER AVE, Pittsburgh, PA 15210",15210,DINKU RAHEL,Condemned/Dead End Property,2020-08-21,Fail,2,0014J00162000000,Active,40.4168138604,-79.997501616,Beltzhoover,3,18
43388,0174M00208000000,No primary address specified,15221,LAW ROSE & JAMES C BURGESS,Condemned/Dead End Property,2022-08-29,Pass,0,0174M00208000000,Active,40.4575469936,-79.8855243712,Homewood North,9,13
43389,0174M00359000000,"918 TYSON ST, Pittsburgh, 15208",15221,MAURJANEE ENTERPRISES LLC,Condemned/Dead End Property,2020-09-09,Fail,2,0174M00359000000,Active,40.4555579002,-79.885539284,Homewood North,9,13
43390,0050K00302000000,"4912 DEARBORN ST, Pittsburgh, PA 15224",15224,"",Condemned/Dead End Property,2024-03-22,Fail,1,0050K00302000000,Active,40.4657859288,-79.9446123526,Garfield,9,10
43391,0011K00045000000,"2112 5TH AVE, Pittsburgh, 15219",15219,CITY OF PITTSBURGH,Condemned/Dead End Property,2024-07-19,Fail,2,0011K00045000000,Active,40.4378717243,-79.9753922132,Bluff,6,4
43392,0033E00148000000,"114 TARRAGONNA ST, Pittsburgh, 15210",15210,"",Condemned/Dead End Property,2021-09-27,Fail,3,0033E00148000000,Active,40.4097151135,-79.9970750401,Bon Air,4,18
43393,0039E00033000A00,"136 PENSDALE ST, Pittsburgh, 15205",15205,MCGREGOR JOY A,Condemned/Dead End Property,2020-09-08,Fail,2,0039E00033000A00,Active,40.4290478139,-80.0655264825,Oakwood,2,28
43394,0039E00033000A00,"136 PENSDALE ST, Pittsburgh, 15205",15205,MCGREGOR JOY A,Condemned/Dead End Property,2023-05-01,Pass,0,0039E00033000A00,Active,40.4290478139,-80.0655264825,Oakwood,2,28
43395,0124S00094000000,"6716 ROWAN ST, Pittsburgh, 15206",15206,RECTOR RHONDA,Condemned/Dead End Property,2024-08-12,Fail,2,0124S00094000000,Active,40.4640586694,-79.9026864786,Lincoln-Lemington-Belmar,9,12
43396,0050M00199000000,"5413 ROSETTA ST, Pittsburgh, 15206",15206,CITY OF PITTSBURGH,Condemned/Dead End Property,2020-06-15,Fail,2,0050M00199000000,Active,40.4670965618,-79.9344259874,Garfield,9,11
43397,0174F00110000000,"7325 MONTICELLO ST, Pittsburgh, 15208",15208,J A LAND COMPANY,Condemned/Dead End Property,2020-09-04,Fail,2,0174F00110000000,Active,40.4589548992,-79.8920857959,Homewood North,9,13
43398,0174F00110000000,"7325 MONTICELLO ST, Pittsburgh, 15208",15208,J A LAND COMPANY,Condemned/Dead End Property,2026-03-23,,,0174F00110000000,Active,40.4589548992,-79.8920857959,Homewood North,9,13
43399,0050L00168000000,"5171 JORDAN Way, Pittsburgh, 15224",15224,"",Condemned/Dead End Property,2020-06-05,Fail,1,0050L00168000000,Active,40.4664054734,-79.9399576571,Garfield,9,10
43400,0056G00007000000,"303 FLOWERS AVE, Pittsburgh, 15207",15207,"",Condemned/Dead End Property,2020-08-28,Fail,1,0056G00007000000,Active,40.4113420288,-79.9407718623,Hazelwood,5,15
